{
"type": "FeatureCollection",
"name": "ndac-directory-georeferenced",
"crs": { "type": "name", "properties": { "name": "urn:ogc:def:crs:OGC:1.3:CRS84" } },
"features": [
{ "type": "Feature", "properties": { "BUSINESS NAME": "(PENDING) LOFTON AVIATION INC", "OWNER/OPERATOR": "CHAD LOFTON", "EMAIL": "chadlofton@hotmail.com", "PHONE": "218-779-1678", "CITY": "GEORGETOWN", "STATE": "MN", "CHIEF PILOT (RESPONSIBLE FOR ALL PILOTS)": "CHAD LOFTON", "ADDL PILOTS": "NONE LISTED", "TYPE OF LICENSE": "MANNED" }, "geometry": { "type": "Point", "coordinates": [ -96.7946792, 47.080225 ] } },
{ "type": "Feature", "properties": { "BUSINESS NAME": "(PENDING) SMITH, JOEL", "OWNER/OPERATOR": "DIVAN BEUKES", "EMAIL": "joel@ssgrains.com", "PHONE": "701-520-9688", "CITY": "WALHALLA", "STATE": "ND", "CHIEF PILOT (RESPONSIBLE FOR ALL PILOTS)": "DIVAN BEUKES", "ADDL PILOTS": "NONE LISTED", "TYPE OF LICENSE": "UNMANNED" }, "geometry": { "type": "Point", "coordinates": [ -97.918148, 48.923328 ] } },
{ "type": "Feature", "properties": { "BUSINESS NAME": "(PENDING) VOGEL, MICHAEL", "OWNER/OPERATOR": "MICHAEL VOGEL", "EMAIL": "mikevogel@hotmail.com", "PHONE": "701-320-0624", "CITY": "LAMOURE", "STATE": "ND", "CHIEF PILOT (RESPONSIBLE FOR ALL PILOTS)": "MICHAEL VOGEL", "ADDL PILOTS": "NONE LISTED", "TYPE OF LICENSE": "UNMANNED" }, "geometry": { "type": "Point", "coordinates": [ -98.294543, 46.357192 ] } },
{ "type": "Feature", "properties": { "BUSINESS NAME": "(PENDING) WEST CENTRAL AG-AIR INC", "OWNER/OPERATOR": "RYAN LUBBEN", "EMAIL": "wcagair@live.com", "PHONE": "218-770-0130", "CITY": "FERGUS FALLS", "STATE": "MN", "CHIEF PILOT (RESPONSIBLE FOR ALL PILOTS)": "RYAN LUBBEN", "ADDL PILOTS": "NONE LISTED", "TYPE OF LICENSE": "MANNED" }, "geometry": { "type": "Point", "coordinates": [ -96.077558, 46.283015 ] } },
{ "type": "Feature", "properties": { "BUSINESS NAME": "3RD GEN AVIATION LLC", "OWNER/OPERATOR": "BEN HALSTENSON", "EMAIL": "bhalstenson@3rdgenaviation.com", "PHONE": "701-739-5463", "CITY": "LISBON", "STATE": "ND", "CHIEF PILOT (RESPONSIBLE FOR ALL PILOTS)": "BEN HALSTENSON", "ADDL PILOTS": "NONE LISTED", "TYPE OF LICENSE": "MANNED" }, "geometry": { "type": "Point", "coordinates": [ -97.68121, 46.441634 ] } },
{ "type": "Feature", "properties": { "BUSINESS NAME": "4R FARM INSIGHTS LLC", "OWNER/OPERATOR": "MATTIE SCHMITT", "EMAIL": "mattie@4rfarminsights.com", "PHONE": "701-833-4316", "CITY": "TOWNER", "STATE": "ND", "CHIEF PILOT (RESPONSIBLE FOR ALL PILOTS)": "MATTIE SCHMITT", "ADDL PILOTS": "NONE LISTED", "TYPE OF LICENSE": "UNMANNED" }, "geometry": { "type": "Point", "coordinates": [ -100.405412, 48.345833 ] } },
{ "type": "Feature", "properties": { "BUSINESS NAME": "701 AERIAL APPLICATION LLC", "OWNER/OPERATOR": "TRISTEN UGLEM", "EMAIL": "ttuglem@gmail.com", "PHONE": "218-779-7382", "CITY": "NORTHWOOD", "STATE": "ND", "CHIEF PILOT (RESPONSIBLE FOR ALL PILOTS)": "TRISTEN UGLEM", "ADDL PILOTS": "NONE LISTED", "TYPE OF LICENSE": "UNMANNED" }, "geometry": { "type": "Point", "coordinates": [ -97.5667543, 47.7341547 ] } },
{ "type": "Feature", "properties": { "BUSINESS NAME": "AB SPRAY LLC", "OWNER/OPERATOR": "PARKER SKOLNESS", "EMAIL": "parker.skolness@gmail.com", "PHONE": "701-866-1977", "CITY": "GLYNDON", "STATE": "MN", "CHIEF PILOT (RESPONSIBLE FOR ALL PILOTS)": "PARKER SKOLNESS", "ADDL PILOTS": "NONE LISTED", "TYPE OF LICENSE": "UNMANNED" }, "geometry": { "type": "Point", "coordinates": [ -96.578963, 46.87524 ] } },
{ "type": "Feature", "properties": { "BUSINESS NAME": "AERIAL AG DRONE SERVICES", "OWNER/OPERATOR": "BRAYDEN BUSCHE", "EMAIL": "aerialagdrone@gmail.com", "PHONE": "701-660-9230", "CITY": "WYNDMERE", "STATE": "ND", "CHIEF PILOT (RESPONSIBLE FOR ALL PILOTS)": "BRAYDEN BUSCHE", "ADDL PILOTS": "NONE LISTED", "TYPE OF LICENSE": "UNMANNED" }, "geometry": { "type": "Point", "coordinates": [ -97.13231, 46.266627 ] } },
{ "type": "Feature", "properties": { "BUSINESS NAME": "AERIAL CROP CARE CO", "OWNER/OPERATOR": "PIERSON CHASE", "EMAIL": "aerialcrop@westriv.com", "PHONE": "701-878-4735", "CITY": "HEBRON", "STATE": "ND", "CHIEF PILOT (RESPONSIBLE FOR ALL PILOTS)": "PERSON CHASE", "ADDL PILOTS": "ROBERT WILSON, KEVIN HANSEN", "TYPE OF LICENSE": "MANNED" }, "geometry": { "type": "Point", "coordinates": [ -102.0454416, 46.9005626 ] } },
{ "type": "Feature", "properties": { "BUSINESS NAME": "AERIAL PLOT", "OWNER/OPERATOR": "TRAVIS BENSON", "EMAIL": "travisbenson.mn@gmail.com", "PHONE": "320-314-2075", "CITY": "WAYZATA", "STATE": "MN", "CHIEF PILOT (RESPONSIBLE FOR ALL PILOTS)": "TRAVIS BENSON", "ADDL PILOTS": "NONE LISTED", "TYPE OF LICENSE": "UNMANNED" }, "geometry": { "type": "Point", "coordinates": [ -93.511947, 44.970759 ] } },
{ "type": "Feature", "properties": { "BUSINESS NAME": "AERO SPRAYING SERVICE INC", "OWNER/OPERATOR": "RICK MARBURGER", "EMAIL": "rckmrbrgr@gmail.com", "PHONE": "701-570-2342", "CITY": "WILLISTON", "STATE": "ND", "CHIEF PILOT (RESPONSIBLE FOR ALL PILOTS)": "RICK MARBURGER", "ADDL PILOTS": "DUSTIN VILLINES, TANNER OVERLAND", "TYPE OF LICENSE": "MANNED" }, "geometry": { "type": "Point", "coordinates": [ -103.621814, 48.1465457 ] } },
{ "type": "Feature", "properties": { "BUSINESS NAME": "AGRITECH AVIATION INC, MILLER SPRAYING", "OWNER/OPERATOR": "JEROLD MILLER", "EMAIL": "sales@agritechinc.com", "PHONE": "701-728-6614", "CITY": "DEERING", "STATE": "ND", "CHIEF PILOT (RESPONSIBLE FOR ALL PILOTS)": "JEROLD MILLER", "ADDL PILOTS": "STEVEN MAIRS", "TYPE OF LICENSE": "MANNED" }, "geometry": { "type": "Point", "coordinates": [ -101.05182, 48.395572 ] } },
{ "type": "Feature", "properties": { "BUSINESS NAME": "AGVANTAGE AERIAL LLC", "OWNER/OPERATOR": "LANCE MEIER", "EMAIL": "lance.e.meier@gmail.com", "PHONE": "701-367-4728", "CITY": "ZEELAND", "STATE": "ND", "CHIEF PILOT (RESPONSIBLE FOR ALL PILOTS)": "LANCE MEIER", "ADDL PILOTS": "CODY JOHNSON (PENDING)", "TYPE OF LICENSE": "UNMANNED" }, "geometry": { "type": "Point", "coordinates": [ -99.830673, 45.969984 ] } },
{ "type": "Feature", "properties": { "BUSINESS NAME": "AIR DAKOTA FLITE INC", "OWNER/OPERATOR": "CHARLES LINDQUIST", "EMAIL": "airdakota@ndsupernet.com", "PHONE": "701-567-2069", "CITY": "HETTINGER", "STATE": "ND", "CHIEF PILOT (RESPONSIBLE FOR ALL PILOTS)": "CHARLES LINDQUIST", "ADDL PILOTS": "MICHAEL LINDQUIST, JAMES LINDQUIST", "TYPE OF LICENSE": "MANNED" }, "geometry": { "type": "Point", "coordinates": [ -102.6368239, 46.0013946 ] } },
{ "type": "Feature", "properties": { "BUSINESS NAME": "AIR KRAFT SPRAYING INC", "OWNER/OPERATOR": "JAKE KRAFT", "EMAIL": "aksjake@gmail.com", "PHONE": "605-848-2624", "CITY": "TIMBER LAKE", "STATE": "SD", "CHIEF PILOT (RESPONSIBLE FOR ALL PILOTS)": "JAKE KRAFT", "ADDL PILOTS": "TYRONE KRAFT, TANNER KRAFT, ISAAC KRAFT", "TYPE OF LICENSE": "MANNED" }, "geometry": { "type": "Point", "coordinates": [ -101.074034, 45.429155 ] } },
{ "type": "Feature", "properties": { "BUSINESS NAME": "AIRBORNE CUSTOM SPRAYING", "OWNER/OPERATOR": "ROB ASLESEN", "EMAIL": "admin@airborncustomspraying.com", "PHONE": "218-456-2465", "CITY": "HALSTAD", "STATE": "MN", "CHIEF PILOT (RESPONSIBLE FOR ALL PILOTS)": "ROB ASLESEN", "ADDL PILOTS": "JON ASLESEN, MARLIN INGEBRETSON, CHAD HANSON, RAFAEL FLORES, JOSH MAIER, ZACH WOLF, JACOB RADERMACHER", "TYPE OF LICENSE": "MANNED" }, "geometry": { "type": "Point", "coordinates": [ -96.828626, 47.3516282 ] } },
{ "type": "Feature", "properties": { "BUSINESS NAME": "AIRWORKS", "OWNER/OPERATOR": "ANDREW ASLESEN", "EMAIL": "andrew@airworksmn.com", "PHONE": "218-770-1248", "CITY": "SABIN", "STATE": "MN", "CHIEF PILOT (RESPONSIBLE FOR ALL PILOTS)": "ANDREW ASLESEN", "ADDL PILOTS": "DEAN LESMEISTER", "TYPE OF LICENSE": "MANNED" }, "geometry": { "type": "Point", "coordinates": [ -96.653133, 46.779685 ] } },
{ "type": "Feature", "properties": { "BUSINESS NAME": "ARTHUR AVIATION LLC", "OWNER/OPERATOR": "MATT HOVDENES", "EMAIL": "matt.hovdenes@arthurcompanies.com", "PHONE": "218-790-2765", "CITY": "ARTHUR", "STATE": "ND", "CHIEF PILOT (RESPONSIBLE FOR ALL PILOTS)": "MATT HOVDENES", "ADDL PILOTS": "ANDREW GERSWOLD", "TYPE OF LICENSE": "MANNED" }, "geometry": { "type": "Point", "coordinates": [ -97.2181431, 47.1041435 ] } },
{ "type": "Feature", "properties": { "BUSINESS NAME": "BAIR AVIATION INC", "OWNER/OPERATOR": "CRAIG BAIR", "EMAIL": "bairaviation@gmail.com", "PHONE": "402-366-4300", "CITY": "LAKE CITY", "STATE": "SD", "CHIEF PILOT (RESPONSIBLE FOR ALL PILOTS)": "CRAIG BAIR", "ADDL PILOTS": "NONE LISTED", "TYPE OF LICENSE": "MANNED" }, "geometry": { "type": "Point", "coordinates": [ -97.4145399, 45.7252321 ] } },
{ "type": "Feature", "properties": { "BUSINESS NAME": "BEAR CREEK FLYING SERVICE", "OWNER/OPERATOR": "TRAVIS MCPHERSON", "EMAIL": "bearcreekflying@drtel.net", "PHONE": "701-710-1220", "CITY": "OAKES", "STATE": "ND", "CHIEF PILOT (RESPONSIBLE FOR ALL PILOTS)": "TRAVIS MCPHERSON", "ADDL PILOTS": "NONE LISTED", "TYPE OF LICENSE": "MANNED" }, "geometry": { "type": "Point", "coordinates": [ -98.090379, 46.138579 ] } },
{ "type": "Feature", "properties": { "BUSINESS NAME": "BLUE EARTH FLYING SERVICE", "OWNER/OPERATOR": "LUKE STEIER", "EMAIL": "carly.steier@hotmail.com", "PHONE": "507-526-7264", "CITY": "BLUE EARTH", "STATE": "MN", "CHIEF PILOT (RESPONSIBLE FOR ALL PILOTS)": "LUKE STEIER", "ADDL PILOTS": "JACOB HUBER, NORBERT GREGORY, NATHAN TAFELMEYER", "TYPE OF LICENSE": "MANNED" }, "geometry": { "type": "Point", "coordinates": [ -94.1021821, 43.637455 ] } },
{ "type": "Feature", "properties": { "BUSINESS NAME": "BLUE SKIES AG LLC", "OWNER/OPERATOR": "TYLER FJELDAHL", "EMAIL": "tyler.fjeldahl@gmail.com", "PHONE": "701-822-0854", "CITY": "PLAZA", "STATE": "ND", "CHIEF PILOT (RESPONSIBLE FOR ALL PILOTS)": "TYLER FJELDAHL", "ADDL PILOTS": "NONE LISTED", "TYPE OF LICENSE": "UNMANNED" }, "geometry": { "type": "Point", "coordinates": [ -101.9604636, 48.0247697 ] } },
{ "type": "Feature", "properties": { "BUSINESS NAME": "BOWERS AERIAL LLC", "OWNER/OPERATOR": "BLAKE BOWERS", "EMAIL": "bowersaerial@gmail.com", "PHONE": "701-818-7459", "CITY": "MOHALL", "STATE": "ND", "CHIEF PILOT (RESPONSIBLE FOR ALL PILOTS)": "BLAKE BOWERS", "ADDL PILOTS": "CHAD GRAVESEN, SANJIV BISHESAR", "TYPE OF LICENSE": "MANNED" }, "geometry": { "type": "Point", "coordinates": [ -101.513217, 48.763356 ] } },
{ "type": "Feature", "properties": { "BUSINESS NAME": "BREKKE AVIATION INC", "OWNER/OPERATOR": "JESS BREKKE", "EMAIL": "jess@brekkeaviation.com", "PHONE": "701-644-2618", "CITY": "EDMORE", "STATE": "ND", "CHIEF PILOT (RESPONSIBLE FOR ALL PILOTS)": "JESS BREKKE", "ADDL PILOTS": "CRISTIANO BARROS DA COSTA", "TYPE OF LICENSE": "MANNED" }, "geometry": { "type": "Point", "coordinates": [ -98.45428, 48.413337 ] } },
{ "type": "Feature", "properties": { "BUSINESS NAME": "BUCKSHOT SPRAYING SERVICE", "OWNER/OPERATOR": "CURTIS BUCKMAN", "EMAIL": "buckshotspraying@yahoo.com", "PHONE": "701-575-8477", "CITY": "BELFIELD", "STATE": "ND", "CHIEF PILOT (RESPONSIBLE FOR ALL PILOTS)": "CURTIS BUCKMAN", "ADDL PILOTS": "CINDY BUCKMAN", "TYPE OF LICENSE": "UNMANNED" }, "geometry": { "type": "Point", "coordinates": [ -103.1996219, 46.8852906 ] } },
{ "type": "Feature", "properties": { "BUSINESS NAME": "CAVALIER AIR SERVICE", "OWNER/OPERATOR": "JEREMY SENG", "EMAIL": "jeremycseng@gmail.com", "PHONE": "701-265-4466", "CITY": "CAVALIER", "STATE": "ND", "CHIEF PILOT (RESPONSIBLE FOR ALL PILOTS)": "JEREMY SENG", "ADDL PILOTS": "NONE LISTED", "TYPE OF LICENSE": "MANNED" }, "geometry": { "type": "Point", "coordinates": [ -97.6223098, 48.7938814 ] } },
{ "type": "Feature", "properties": { "BUSINESS NAME": "CLIFFORD FARMERS COOP ELEVATOR", "OWNER/OPERATOR": "STEVE BALDOCK", "EMAIL": "kody@cliffordfarmerscoop.com", "PHONE": "701-289-0018", "CITY": "CLIFFORD", "STATE": "ND", "CHIEF PILOT (RESPONSIBLE FOR ALL PILOTS)": "RYAN GROTH", "ADDL PILOTS": "NONE LISTED", "TYPE OF LICENSE": "MANNED" }, "geometry": { "type": "Point", "coordinates": [ -97.4106449, 47.3480408 ] } },
{ "type": "Feature", "properties": { "BUSINESS NAME": "CUSTOM CROP CARE LLC", "OWNER/OPERATOR": "DEREK MORTEN", "EMAIL": "derekmorten39@gmail.com", "PHONE": "218-779-6637", "CITY": "LARIMORE", "STATE": "ND", "CHIEF PILOT (RESPONSIBLE FOR ALL PILOTS)": "DEREK MORTEN", "ADDL PILOTS": "NONE LISTED", "TYPE OF LICENSE": "MANNED" }, "geometry": { "type": "Point", "coordinates": [ -97.6238516, 47.9047773 ] } },
{ "type": "Feature", "properties": { "BUSINESS NAME": "DAKOTA AG SERVICE INC", "OWNER/OPERATOR": "RYAN FURMAN", "EMAIL": "dasinc@venturecomm.net", "PHONE": "605-448-2264", "CITY": "BRITTON", "STATE": "SD", "CHIEF PILOT (RESPONSIBLE FOR ALL PILOTS)": "CRAIG BAIR", "ADDL PILOTS": "DARRIN PLUHAR", "TYPE OF LICENSE": "MANNED" }, "geometry": { "type": "Point", "coordinates": [ -97.7496136, 45.7917043 ] } },
{ "type": "Feature", "properties": { "BUSINESS NAME": "DAKOTA AIR SPRAY", "OWNER/OPERATOR": "PHILIP SOUKUP", "EMAIL": "psoukup@dakotaairspray.com", "PHONE": "701-550-0134", "CITY": "ROLLA", "STATE": "ND", "CHIEF PILOT (RESPONSIBLE FOR ALL PILOTS)": "ERIK KLINDT", "ADDL PILOTS": "ALEXANDER VIGER, PAUL DEAL", "TYPE OF LICENSE": "MANNED" }, "geometry": { "type": "Point", "coordinates": [ -99.617922, 48.857784 ] } },
{ "type": "Feature", "properties": { "BUSINESS NAME": "DAKOTA DRONE LLC", "OWNER/OPERATOR": "DANE MUELLER", "EMAIL": "dmueller1305@gmail.com", "PHONE": "701-789-1305", "CITY": "COOPERSTOWN", "STATE": "ND", "CHIEF PILOT (RESPONSIBLE FOR ALL PILOTS)": "DANE MUELLER", "ADDL PILOTS": "NONE LISTED", "TYPE OF LICENSE": "UNMANNED" }, "geometry": { "type": "Point", "coordinates": [ -98.1239843, 47.4444384 ] } },
{ "type": "Feature", "properties": { "BUSINESS NAME": "DAKOTA HELICOPTERS INC", "OWNER/OPERATOR": "SHAWN MORTEN", "EMAIL": "smorten@dakotahelicopters.com", "PHONE": "701-873-4100", "CITY": "BEULAH", "STATE": "ND", "CHIEF PILOT (RESPONSIBLE FOR ALL PILOTS)": "SHAWN MORTEN", "ADDL PILOTS": "NONE LISTED", "TYPE OF LICENSE": "MANNED" }, "geometry": { "type": "Point", "coordinates": [ -101.777946, 47.26334 ] } },
{ "type": "Feature", "properties": { "BUSINESS NAME": "DAN'S FLYING SERVICE INC", "OWNER/OPERATOR": "DANIEL GEIST", "EMAIL": "dansflyingservice@gmail.com", "PHONE": "218-281-1372", "CITY": "CROOKSTON", "STATE": "MN", "CHIEF PILOT (RESPONSIBLE FOR ALL PILOTS)": "DANIEL GEIST", "ADDL PILOTS": "TYLER NESS, ANDREAS GEIST", "TYPE OF LICENSE": "MANNED" }, "geometry": { "type": "Point", "coordinates": [ -96.6081167, 47.7739988 ] } },
{ "type": "Feature", "properties": { "BUSINESS NAME": "DEKALB AVIATION LLC", "OWNER/OPERATOR": "FLETCHER DEKALB", "EMAIL": "fdekalb@gmail.com", "PHONE": "509-322-6543", "CITY": "WILLISTON", "STATE": "ND", "CHIEF PILOT (RESPONSIBLE FOR ALL PILOTS)": "FLETCHER DEKALB", "ADDL PILOTS": "NONE LISTED", "TYPE OF LICENSE": "MANNED" }, "geometry": { "type": "Point", "coordinates": [ -103.621814, 48.1465457 ] } },
{ "type": "Feature", "properties": { "BUSINESS NAME": "DETERDING AERIAL LLC", "OWNER/OPERATOR": "JIM DETERDING", "EMAIL": "deterdingaerial@yahoo.com", "PHONE": "580-532-4490", "CITY": "POND CREEK", "STATE": "OK", "CHIEF PILOT (RESPONSIBLE FOR ALL PILOTS)": "JACOB SEVERIN", "ADDL PILOTS": "DANIEL YODER", "TYPE OF LICENSE": "MANNED" }, "geometry": { "type": "Point", "coordinates": [ -97.8011661, 36.669197 ] } },
{ "type": "Feature", "properties": { "BUSINESS NAME": "DONALDSON PRECISION SPRAYING", "OWNER/OPERATOR": "ETHAN DONALDSON", "EMAIL": "hallockethan@gmail.com", "PHONE": "701-410-8049", "CITY": "MANVEL", "STATE": "ND", "CHIEF PILOT (RESPONSIBLE FOR ALL PILOTS)": "ETHAN DONALDSON", "ADDL PILOTS": "NONE LISTED", "TYPE OF LICENSE": "UNMANNED" }, "geometry": { "type": "Point", "coordinates": [ -97.176465, 48.0777615 ] } },
{ "type": "Feature", "properties": { "BUSINESS NAME": "DRONE ZONE SPRAY SERVICE", "OWNER/OPERATOR": "MICHAEL VEER", "EMAIL": "mveer@gondtc.com", "PHONE": "701-381-9707", "CITY": "DEVILS LAKE", "STATE": "ND", "CHIEF PILOT (RESPONSIBLE FOR ALL PILOTS)": "MICHAEL VEER", "ADDL PILOTS": "NONE LISTED", "TYPE OF LICENSE": "UNMANNED" }, "geometry": { "type": "Point", "coordinates": [ -98.86512, 48.112779 ] } },
{ "type": "Feature", "properties": { "BUSINESS NAME": "EAGLE EYE DRONE SERVICES", "OWNER/OPERATOR": "SHANE MARTINSON", "EMAIL": "shanemartinson@hotmail.com", "PHONE": "701-399-6016", "CITY": "HARVEY", "STATE": "ND", "CHIEF PILOT (RESPONSIBLE FOR ALL PILOTS)": "SHANE MARTINSON", "ADDL PILOTS": "BREVON MARTINSON", "TYPE OF LICENSE": "UNMANNED" }, "geometry": { "type": "Point", "coordinates": [ -99.935404, 47.769723 ] } },
{ "type": "Feature", "properties": { "BUSINESS NAME": "ELEVATED AG SOLUTIONS LLC", "OWNER/OPERATOR": "SPENCER SCHWAB", "EMAIL": "bigssfarms@gmail.com", "PHONE": "701-680-7640", "CITY": "LISBON", "STATE": "ND", "CHIEF PILOT (RESPONSIBLE FOR ALL PILOTS)": "SPENCER SCHWAB", "ADDL PILOTS": "NONE LISTED", "TYPE OF LICENSE": "UNMANNED" }, "geometry": { "type": "Point", "coordinates": [ -97.68121, 46.441634 ] } },
{ "type": "Feature", "properties": { "BUSINESS NAME": "FIELD FLIGHT SERVICES LLC", "OWNER/OPERATOR": "JAMIE SEEDORF", "EMAIL": "jamieseedorf737@gmail.com", "PHONE": "701-498-0138", "CITY": "MANDAN", "STATE": "ND", "CHIEF PILOT (RESPONSIBLE FOR ALL PILOTS)": "JAMIE SEEDORF", "ADDL PILOTS": "NONE LISTED", "TYPE OF LICENSE": "UNMANNED" }, "geometry": { "type": "Point", "coordinates": [ -100.889704, 46.826415 ] } },
{ "type": "Feature", "properties": { "BUSINESS NAME": "FLY LOW AVIATION LLC", "OWNER/OPERATOR": "CALLY ARNDT", "EMAIL": "flylownd@gmail.com", "PHONE": "719-239-1558", "CITY": "ASHLEY", "STATE": "ND", "CHIEF PILOT (RESPONSIBLE FOR ALL PILOTS)": "TYSON LUKASAVIGE", "ADDL PILOTS": "TYLER CHAMBERLAIN, JASON HURT", "TYPE OF LICENSE": "MANNED" }, "geometry": { "type": "Point", "coordinates": [ -99.371503, 46.034141 ] } },
{ "type": "Feature", "properties": { "BUSINESS NAME": "FLYING G AVIATION INC", "OWNER/OPERATOR": "TROY GEORGESON", "EMAIL": "flyingg@polarcomm.com", "PHONE": "701-454-6588", "CITY": "DRAYTON", "STATE": "ND", "CHIEF PILOT (RESPONSIBLE FOR ALL PILOTS)": "TROY GEORGESON", "ADDL PILOTS": "NONE LISTED", "TYPE OF LICENSE": "MANNED" }, "geometry": { "type": "Point", "coordinates": [ -97.1780148, 48.5711277 ] } },
{ "type": "Feature", "properties": { "BUSINESS NAME": "FLYITON AG LLC", "OWNER/OPERATOR": "LYNN JOHNSON", "EMAIL": "ljohn1340@aol.com", "PHONE": "701-360-5966", "CITY": "GRAFTON", "STATE": "ND", "CHIEF PILOT (RESPONSIBLE FOR ALL PILOTS)": "LYNN JOHNSON", "ADDL PILOTS": "KYLE SVEEN, ROBERT JOHNSON", "TYPE OF LICENSE": "MANNED" }, "geometry": { "type": "Point", "coordinates": [ -97.410634, 48.4122108 ] } },
{ "type": "Feature", "properties": { "BUSINESS NAME": "FOREST FLYING SERVICE", "OWNER/OPERATOR": "KEVIN FOREST", "EMAIL": "forestflying@yahoo.com", "PHONE": "701-305-0072", "CITY": "LANGDON", "STATE": "ND", "CHIEF PILOT (RESPONSIBLE FOR ALL PILOTS)": "KEVIN FOREST", "ADDL PILOTS": "DAVID HART, JESSE FETSCH", "TYPE OF LICENSE": "MANNED" }, "geometry": { "type": "Point", "coordinates": [ -98.3678245, 48.7605902 ] } },
{ "type": "Feature", "properties": { "BUSINESS NAME": "FROEMKE AERIAL SOLUTIONS", "OWNER/OPERATOR": "STEVEN FROEMKE", "EMAIL": "info@froemkeas.com", "PHONE": "701-680-0564", "CITY": "LISBON", "STATE": "ND", "CHIEF PILOT (RESPONSIBLE FOR ALL PILOTS)": "STEVEN FROEMKE", "ADDL PILOTS": "NONE LISTED", "TYPE OF LICENSE": "UNMANNED" }, "geometry": { "type": "Point", "coordinates": [ -97.68121, 46.441634 ] } },
{ "type": "Feature", "properties": { "BUSINESS NAME": "GASPER AIR SPRAY INC", "OWNER/OPERATOR": "MICHAEL GASPER", "EMAIL": "gasperairspray@gmail.com", "PHONE": "218-289-0076", "CITY": "CROOKSTON", "STATE": "MN", "CHIEF PILOT (RESPONSIBLE FOR ALL PILOTS)": "MICHAEL GASPER", "ADDL PILOTS": "BRADY DAVIS", "TYPE OF LICENSE": "MANNED" }, "geometry": { "type": "Point", "coordinates": [ -96.6081167, 47.7739988 ] } },
{ "type": "Feature", "properties": { "BUSINESS NAME": "GREAT PLAINS AERO INC", "OWNER/OPERATOR": "JULIUS BREKHUS", "EMAIL": "paklbrek@restel.com", "PHONE": "701-848-6116", "CITY": "TOLLEY", "STATE": "ND", "CHIEF PILOT (RESPONSIBLE FOR ALL PILOTS)": "JULIUS BREKHUS", "ADDL PILOTS": "DAKOTA PETERSEN, PAUL SOULEK, JOE BAKER, ", "TYPE OF LICENSE": "MANNED" }, "geometry": { "type": "Point", "coordinates": [ -101.8273851, 48.7289124 ] } },
{ "type": "Feature", "properties": { "BUSINESS NAME": "HANSEN AG AIR LLC", "OWNER/OPERATOR": "ROSS HANSEN", "EMAIL": "ross.p.hansen@icloud.com", "PHONE": "218-849-6300", "CITY": "DETROIT LAKES", "STATE": "MN", "CHIEF PILOT (RESPONSIBLE FOR ALL PILOTS)": "ROSS HANSEN", "ADDL PILOTS": "NONE LISTED", "TYPE OF LICENSE": "UNMANNED" }, "geometry": { "type": "Point", "coordinates": [ -95.845325, 46.817181 ] } },
{ "type": "Feature", "properties": { "BUSINESS NAME": "HART FLYING SERVICE", "OWNER/OPERATOR": "DAVID HART", "EMAIL": "tmmtrans@yahoo.com", "PHONE": "701-305-0458", "CITY": "LANGDON", "STATE": "ND", "CHIEF PILOT (RESPONSIBLE FOR ALL PILOTS)": "DAVID HART", "ADDL PILOTS": "NONE LISTED", "TYPE OF LICENSE": "MANNED" }, "geometry": { "type": "Point", "coordinates": [ -98.3678245, 48.7605902 ] } },
{ "type": "Feature", "properties": { "BUSINESS NAME": "HARVEST PARTNERS GENERAL PARTNERSHIP", "OWNER/OPERATOR": "JACOB CLAUSON", "EMAIL": "clausonja92@gmail.com", "PHONE": "701-680-5676", "CITY": "MAPLETON", "STATE": "ND", "CHIEF PILOT (RESPONSIBLE FOR ALL PILOTS)": "JACOB CLAUSON", "ADDL PILOTS": "NONE LISTED", "TYPE OF LICENSE": "UNMANNED" }, "geometry": { "type": "Point", "coordinates": [ -97.052587, 46.889138 ] } },
{ "type": "Feature", "properties": { "BUSINESS NAME": "HEUER AGRI DRONE SERVICES", "OWNER/OPERATOR": "ELEANOR HEUER", "EMAIL": "heueragridrone@outlook.com", "PHONE": "701-238-9046", "CITY": "LEONARD", "STATE": "ND", "CHIEF PILOT (RESPONSIBLE FOR ALL PILOTS)": "ELEANOR HEUER", "ADDL PILOTS": "MATT HEUER", "TYPE OF LICENSE": "UNMANNED" }, "geometry": { "type": "Point", "coordinates": [ -97.245647, 46.651915 ] } },
{ "type": "Feature", "properties": { "BUSINESS NAME": "HILLHEAD DRONE SERVICE LLC", "OWNER/OPERATOR": "THAD GRIMSRUD", "EMAIL": "thadgrimsrud@gmail.com", "PHONE": "605-695-5600", "CITY": "BROOKINGS", "STATE": "SD", "CHIEF PILOT (RESPONSIBLE FOR ALL PILOTS)": "THAD GRIMSRUD", "ADDL PILOTS": "NONE LISTED", "TYPE OF LICENSE": "UNMANNED" }, "geometry": { "type": "Point", "coordinates": [ -96.79844, 44.311461 ] } },
{ "type": "Feature", "properties": { "BUSINESS NAME": "HINKLE AIRSPRAY INC", "OWNER/OPERATOR": "JASON HINKLE", "EMAIL": "sarahinkle37@gmail.com", "PHONE": "701-265-8405", "CITY": "CAVALIER", "STATE": "ND", "CHIEF PILOT (RESPONSIBLE FOR ALL PILOTS)": "JASON HINKLE", "ADDL PILOTS": "JUSTIN HINKLE", "TYPE OF LICENSE": "MANNED" }, "geometry": { "type": "Point", "coordinates": [ -97.6223098, 48.7938814 ] } },
{ "type": "Feature", "properties": { "BUSINESS NAME": "HOISTAD FLYING SERVICE", "OWNER/OPERATOR": "RICK HOISTAD", "EMAIL": "ajstroh@gmail.com", "PHONE": "701-308-0169", "CITY": "GWINNER", "STATE": "ND", "CHIEF PILOT (RESPONSIBLE FOR ALL PILOTS)": "ANDREW STROH", "ADDL PILOTS": "NONE LISTED", "TYPE OF LICENSE": "MANNED" }, "geometry": { "type": "Point", "coordinates": [ -97.662596, 46.225796 ] } },
{ "type": "Feature", "properties": { "BUSINESS NAME": "HOWATT AIR INC", "OWNER/OPERATOR": "RYAN HOWATT", "EMAIL": "howattair@gmail.com", "PHONE": "701-370-9710", "CITY": "LANGDON", "STATE": "ND", "CHIEF PILOT (RESPONSIBLE FOR ALL PILOTS)": "RYAN HOWATT", "ADDL PILOTS": "NONE LISTED", "TYPE OF LICENSE": "MANNED" }, "geometry": { "type": "Point", "coordinates": [ -98.3678245, 48.7605902 ] } },
{ "type": "Feature", "properties": { "BUSINESS NAME": "HYDRO AG LLC", "OWNER/OPERATOR": "BRENT WANNER", "EMAIL": "wanner_4020@hotmail.com", "PHONE": "701-290-6663", "CITY": "DICKINSON", "STATE": "ND", "CHIEF PILOT (RESPONSIBLE FOR ALL PILOTS)": "BRENT WANNER", "ADDL PILOTS": "NONE LISTED", "TYPE OF LICENSE": "UNMANNED" }, "geometry": { "type": "Point", "coordinates": [ -102.7896242, 46.8791756 ] } },
{ "type": "Feature", "properties": { "BUSINESS NAME": "IDEAL SEED SOLUTIONS", "OWNER/OPERATOR": "JASON BROSSART", "EMAIL": "idealseedsolutions@gmail.com", "PHONE": "701-208-0424", "CITY": "RUGBY", "STATE": "ND", "CHIEF PILOT (RESPONSIBLE FOR ALL PILOTS)": "JASON BROSSART", "ADDL PILOTS": "NONE LISTED", "TYPE OF LICENSE": "UNMANNED" }, "geometry": { "type": "Point", "coordinates": [ -99.996246, 48.368888 ] } },
{ "type": "Feature", "properties": { "BUSINESS NAME": "KH AVIATION LLC", "OWNER/OPERATOR": "RYAN HOWATT", "EMAIL": "howattair@gmail.com", "PHONE": "701-370-9710", "CITY": "LANGDON", "STATE": "ND", "CHIEF PILOT (RESPONSIBLE FOR ALL PILOTS)": "RYAN HOWATT", "ADDL PILOTS": "DANIEL KUBAL", "TYPE OF LICENSE": "MANNED" }, "geometry": { "type": "Point", "coordinates": [ -98.3678245, 48.7605902 ] } },
{ "type": "Feature", "properties": { "BUSINESS NAME": "KNUTSON FLYING SERVICE INC", "OWNER/OPERATOR": "EUGENE KNUTSON", "EMAIL": "kflyer@nccray.com", "PHONE": "701-641-3276", "CITY": "TIOGA", "STATE": "ND", "CHIEF PILOT (RESPONSIBLE FOR ALL PILOTS)": "EUGENE KNUTSON", "ADDL PILOTS": "NONE LISTED", "TYPE OF LICENSE": "MANNED" }, "geometry": { "type": "Point", "coordinates": [ -102.938238, 48.397244 ] } },
{ "type": "Feature", "properties": { "BUSINESS NAME": "KRACKE SPRAYING SERVICE INC", "OWNER/OPERATOR": "CURTIS KRACKE", "EMAIL": "curtiskracke@gmail.com", "PHONE": "701-799-9008", "CITY": "FARGO", "STATE": "ND", "CHIEF PILOT (RESPONSIBLE FOR ALL PILOTS)": "CURTIS KRACKE", "ADDL PILOTS": "NONE LISTED", "TYPE OF LICENSE": "MANNED" }, "geometry": { "type": "Point", "coordinates": [ -96.789821, 46.877229 ] } },
{ "type": "Feature", "properties": { "BUSINESS NAME": "KROEPLIN AIR SERVICE LLC", "OWNER/OPERATOR": "DOUG KROEPLIN", "EMAIL": "makayla@kroeplinair.com", "PHONE": "605-852-2030", "CITY": "HIGHMORE", "STATE": "SD", "CHIEF PILOT (RESPONSIBLE FOR ALL PILOTS)": "LEVI STODDARD", "ADDL PILOTS": "MARK BECKER", "TYPE OF LICENSE": "MANNED" }, "geometry": { "type": "Point", "coordinates": [ -99.441501, 44.521373 ] } },
{ "type": "Feature", "properties": { "BUSINESS NAME": "KTI", "OWNER/OPERATOR": "JEFF KYLLO", "EMAIL": "kti@midconetwork.com", "PHONE": "218-779-2754", "CITY": "LARIMORE", "STATE": "ND", "CHIEF PILOT (RESPONSIBLE FOR ALL PILOTS)": "JEFF KYLLO", "ADDL PILOTS": "NONE LISTED", "TYPE OF LICENSE": "PRIVATE ONLY" }, "geometry": { "type": "Point", "coordinates": [ -97.6238516, 47.9047773 ] } },
{ "type": "Feature", "properties": { "BUSINESS NAME": "LAKEVIEW AVIATION INC", "OWNER/OPERATOR": "BRIAN WELKEN", "EMAIL": "brian@seenterprisesinc.com", "PHONE": "701-840-8784", "CITY": "SANBORN", "STATE": "ND", "CHIEF PILOT (RESPONSIBLE FOR ALL PILOTS)": "BRIAN WELKEN", "ADDL PILOTS": "NONE LISTED", "TYPE OF LICENSE": "MANNED" }, "geometry": { "type": "Point", "coordinates": [ -98.224259, 46.942207 ] } },
{ "type": "Feature", "properties": { "BUSINESS NAME": "LARSON HELICOPTERS LLC", "OWNER/OPERATOR": "MICHAEL LARSON", "EMAIL": "larheli@arvig.net", "PHONE": "218-346-5719", "CITY": "PERHAM", "STATE": "MN", "CHIEF PILOT (RESPONSIBLE FOR ALL PILOTS)": "MICHAEL LARSON", "ADDL PILOTS": "DYLAN LARSON", "TYPE OF LICENSE": "MANNED" }, "geometry": { "type": "Point", "coordinates": [ -95.5725415, 46.5944042 ] } },
{ "type": "Feature", "properties": { "BUSINESS NAME": "LIMKE, BRAD", "OWNER/OPERATOR": "BRAD LIMKE", "EMAIL": "brad.limke@gmail.com", "PHONE": "701-509-3953", "CITY": "CARPIO", "STATE": "ND", "CHIEF PILOT (RESPONSIBLE FOR ALL PILOTS)": "BRAD LIMKE", "ADDL PILOTS": "MICHAEL LIMKE", "TYPE OF LICENSE": "UNMANNED" }, "geometry": { "type": "Point", "coordinates": [ -101.714606, 48.442517 ] } },
{ "type": "Feature", "properties": { "BUSINESS NAME": "LITTLE HEART APPLICATORS LLC", "OWNER/OPERATOR": "LOGAN RIPPLE", "EMAIL": "caveman9112@gmail.com", "PHONE": "970-623-0299", "CITY": "SAINT ANTHONY", "STATE": "ND", "CHIEF PILOT (RESPONSIBLE FOR ALL PILOTS)": "LOGAN RIPPLE", "ADDL PILOTS": "NONE LISTED", "TYPE OF LICENSE": "UNMANNED" }, "geometry": { "type": "Point", "coordinates": [ -100.9104541, 46.6175194 ] } },
{ "type": "Feature", "properties": { "BUSINESS NAME": "LOCAL AG SOLUTIONS LLC", "OWNER/OPERATOR": "TARYN DOAN", "EMAIL": "tarynallmaras@gmail.com", "PHONE": "701-391-6130", "CITY": "FESSENDEN", "STATE": "ND", "CHIEF PILOT (RESPONSIBLE FOR ALL PILOTS)": "PATRICK DOAN", "ADDL PILOTS": "TARYN ALLMARAS", "TYPE OF LICENSE": "UNMANNED" }, "geometry": { "type": "Point", "coordinates": [ -99.629289, 47.649168 ] } },
{ "type": "Feature", "properties": { "BUSINESS NAME": "LT ENTERPRISES INC", "OWNER/OPERATOR": "LUKE TAYLOR", "EMAIL": "luke@ltenterprisesnd.com", "PHONE": "701-570-2646", "CITY": "WATFORD CITY", "STATE": "ND", "CHIEF PILOT (RESPONSIBLE FOR ALL PILOTS)": "LUKE TAYLOR", "ADDL PILOTS": "JONATHAN HAYS, ADAM TAYLOR, RICK FOSS, JEREMY RENKEN", "TYPE OF LICENSE": "MANNED" }, "geometry": { "type": "Point", "coordinates": [ -103.283247, 47.802241 ] } },
{ "type": "Feature", "properties": { "BUSINESS NAME": "LYTLE DRONE APPLICATIONS LLC", "OWNER/OPERATOR": "TIM LYTLE", "EMAIL": "tdblytle@midrivers.com", "PHONE": "406-855-6097", "CITY": "GLENDIVE", "STATE": "MT", "CHIEF PILOT (RESPONSIBLE FOR ALL PILOTS)": "TIM LYTLE", "ADDL PILOTS": "NONE LISTED", "TYPE OF LICENSE": "UNMANNED" }, "geometry": { "type": "Point", "coordinates": [ -104.71246, 47.10529 ] } },
{ "type": "Feature", "properties": { "BUSINESS NAME": "MAJOR KEN'S FLYING SERVICE LLC", "OWNER/OPERATOR": "KENNETH GUDGEL", "EMAIL": "kengudgel@yahoo.com", "PHONE": "701-640-5739", "CITY": "COLFAX", "STATE": "ND", "CHIEF PILOT (RESPONSIBLE FOR ALL PILOTS)": "KENNETH GUDGEL", "ADDL PILOTS": "NONE LISTED", "TYPE OF LICENSE": "MANNED" }, "geometry": { "type": "Point", "coordinates": [ -96.8745267, 46.4694065 ] } },
{ "type": "Feature", "properties": { "BUSINESS NAME": "MASTER OF NONE LLC", "OWNER/OPERATOR": "SHAWN STEINBERGER", "EMAIL": "shawn@masterofnonellc.com", "PHONE": "701-580-5664", "CITY": "WILLISTON", "STATE": "ND", "CHIEF PILOT (RESPONSIBLE FOR ALL PILOTS)": "SHAWN STEINBERGER", "ADDL PILOTS": "NOAH FARMER, DILLON FARMER", "TYPE OF LICENSE": "UNMANNED" }, "geometry": { "type": "Point", "coordinates": [ -103.621814, 48.1465457 ] } },
{ "type": "Feature", "properties": { "BUSINESS NAME": "MATEJCEK INC", "OWNER/OPERATOR": "KAMRON MATEJCEK", "EMAIL": "kamron.matejcek@gmail.com", "PHONE": "701-270-9921BROCKET", "CITY": "BROCKET", "STATE": "ND", "CHIEF PILOT (RESPONSIBLE FOR ALL PILOTS)": "KAMRON MATEJCEK", "ADDL PILOTS": "NONE LISTED", "TYPE OF LICENSE": "UNMANNED" }, "geometry": { "type": "Point", "coordinates": [ -98.3570499, 48.2130558 ] } },
{ "type": "Feature", "properties": { "BUSINESS NAME": "MATTERN SPRAY SERVICE", "OWNER/OPERATOR": "RODNEY MATTERN", "EMAIL": "matternspray@bektel.com", "PHONE": "701-321-0767", "CITY": "NAPOLEON", "STATE": "ND", "CHIEF PILOT (RESPONSIBLE FOR ALL PILOTS)": "RODNEY MATTERN", "ADDL PILOTS": "BRIAN SPEAS", "TYPE OF LICENSE": "MANNED" }, "geometry": { "type": "Point", "coordinates": [ -99.7667783, 46.5045396 ] } },
{ "type": "Feature", "properties": { "BUSINESS NAME": "MEDINA FLYING SERVICE", "OWNER/OPERATOR": "BRIAN RAU", "EMAIL": "medinaflying@aol.com", "PHONE": "701-320-9505", "CITY": "MEDINA", "STATE": "ND", "CHIEF PILOT (RESPONSIBLE FOR ALL PILOTS)": "BRIAN RAU", "ADDL PILOTS": "NONE LISTED", "TYPE OF LICENSE": "MANNED" }, "geometry": { "type": "Point", "coordinates": [ -99.299833, 46.893876 ] } },
{ "type": "Feature", "properties": { "BUSINESS NAME": "MEYER DRONE SERVICES LLC", "OWNER/OPERATOR": "SAMUEL MEYER", "EMAIL": "samuel.meyer02@gmail.com", "PHONE": "701-609-6788", "CITY": "POLLOCK", "STATE": "SD", "CHIEF PILOT (RESPONSIBLE FOR ALL PILOTS)": "SAMUEL MEYER", "ADDL PILOTS": "NONE LISTED", "TYPE OF LICENSE": "UNMANNED" }, "geometry": { "type": "Point", "coordinates": [ -100.288457, 45.901383 ] } },
{ "type": "Feature", "properties": { "BUSINESS NAME": "MIDWEST CUSTOM AG LLC", "OWNER/OPERATOR": "DEREK WUNDERLICH", "EMAIL": "derek@midwestcustomag.com", "PHONE": "701-630-4713", "CITY": "WHEATLAND", "STATE": "ND", "CHIEF PILOT (RESPONSIBLE FOR ALL PILOTS)": "DEREK WUNDERLICH", "ADDL PILOTS": "NONE LISTED", "TYPE OF LICENSE": "UNMANNED" }, "geometry": { "type": "Point", "coordinates": [ -97.345368, 46.907475 ] } },
{ "type": "Feature", "properties": { "BUSINESS NAME": "MIDWEST DRONE APPLICATORS LLC", "OWNER/OPERATOR": "COLE STOCK", "EMAIL": "midwestdrone24@gmail.com", "PHONE": "701-321-1688", "CITY": "WISHEK", "STATE": "ND", "CHIEF PILOT (RESPONSIBLE FOR ALL PILOTS)": "COLE STOCK", "ADDL PILOTS": "ZACHARY FISCHER", "TYPE OF LICENSE": "UNMANNED" }, "geometry": { "type": "Point", "coordinates": [ -99.557057, 46.256918 ] } },
{ "type": "Feature", "properties": { "BUSINESS NAME": "MIDWEST SKYDRONE SERVICES LLC", "OWNER/OPERATOR": "RYAN BUMANN", "EMAIL": "ryanbumann@hotmail.com", "PHONE": "952-607-7620", "CITY": "PRIOR LAKE", "STATE": "MN", "CHIEF PILOT (RESPONSIBLE FOR ALL PILOTS)": "RYAN BUMANN", "ADDL PILOTS": "NONE LISTED", "TYPE OF LICENSE": "UNMANNED" }, "geometry": { "type": "Point", "coordinates": [ -93.4226873, 44.7133271 ] } },
{ "type": "Feature", "properties": { "BUSINESS NAME": "MILLER SPRAYING", "OWNER/OPERATOR": "JEROLD MILLER", "EMAIL": "sales@agritechinc.com", "PHONE": "701-833-5363", "CITY": "DEERING", "STATE": "ND", "CHIEF PILOT (RESPONSIBLE FOR ALL PILOTS)": "JEROLD MILLER", "ADDL PILOTS": "STEVEN MAIRS", "TYPE OF LICENSE": "MANNED" }, "geometry": { "type": "Point", "coordinates": [ -101.05182, 48.395572 ] } },
{ "type": "Feature", "properties": { "BUSINESS NAME": "MILNOR AG AIR INC", "OWNER/OPERATOR": "MARK GAINOR", "EMAIL": "markgainor@icloud.com", "PHONE": "701-680-1001", "CITY": "MILNOR", "STATE": "ND", "CHIEF PILOT (RESPONSIBLE FOR ALL PILOTS)": "MARK GAINOR", "ADDL PILOTS": "NONE LISTED", "TYPE OF LICENSE": "MANNED" }, "geometry": { "type": "Point", "coordinates": [ -97.456202, 46.259128 ] } },
{ "type": "Feature", "properties": { "BUSINESS NAME": "MINNKOTA AERIAL", "OWNER/OPERATOR": "ANDREW STEINER", "EMAIL": "andrew@minnkotaaerial.com", "PHONE": "320-288-6107", "CITY": "HANCOCK", "STATE": "MN", "CHIEF PILOT (RESPONSIBLE FOR ALL PILOTS)": "ANDREW STEINER", "ADDL PILOTS": "NONE LISTED", "TYPE OF LICENSE": "UNMANNED" }, "geometry": { "type": "Point", "coordinates": [ -95.796714, 45.497461 ] } },
{ "type": "Feature", "properties": { "BUSINESS NAME": "MORTEN AERO AERVICE", "OWNER/OPERATOR": "JESSE MORTEN", "EMAIL": "jessemorten@hotmail.com", "PHONE": "218-779-4244", "CITY": "LARIMORE", "STATE": "ND", "CHIEF PILOT (RESPONSIBLE FOR ALL PILOTS)": "JESSE MORTEN", "ADDL PILOTS": "DEREK MORTEN, RICHARD GOETZ, MATTHEW SCHANILEC", "TYPE OF LICENSE": "MANNED" }, "geometry": { "type": "Point", "coordinates": [ -97.6238516, 47.9047773 ] } },
{ "type": "Feature", "properties": { "BUSINESS NAME": "NATURAL NORTH LLC", "OWNER/OPERATOR": "KEVIN BEHRENS", "EMAIL": "natural.northmn@gmail.com", "PHONE": "218-297-0110", "CITY": "ALEXANDRIA", "STATE": "MN", "CHIEF PILOT (RESPONSIBLE FOR ALL PILOTS)": "KEVIN BEHRENS", "ADDL PILOTS": "NONE LISTED", "TYPE OF LICENSE": "UNMANNED" }, "geometry": { "type": "Point", "coordinates": [ -95.3745015, 45.8835101 ] } },
{ "type": "Feature", "properties": { "BUSINESS NAME": "NE AERIAL DRONE SPRAYING LLC", "OWNER/OPERATOR": "ADAM OLSON", "EMAIL": "neaerialdronesprayingllc@gmail.com", "PHONE": "701-331-2268", "CITY": "EDINBURG", "STATE": "ND", "CHIEF PILOT (RESPONSIBLE FOR ALL PILOTS)": "ADAM OLSON", "ADDL PILOTS": "NONE LISTED", "TYPE OF LICENSE": "UNMANNED" }, "geometry": { "type": "Point", "coordinates": [ -97.8620378, 48.4966607 ] } },
{ "type": "Feature", "properties": { "BUSINESS NAME": "NODAK DRONES", "OWNER/OPERATOR": "MASON WEDE", "EMAIL": "nodakdrones@gmail.com", "PHONE": "701-650-8536", "CITY": "CARRINGTON", "STATE": "ND", "CHIEF PILOT (RESPONSIBLE FOR ALL PILOTS)": "MASON WEDE", "ADDL PILOTS": "ALEXANDER MENKE, GREGORY GRENZ", "TYPE OF LICENSE": "UNMANNED" }, "geometry": { "type": "Point", "coordinates": [ -99.126224, 47.44972 ] } },
{ "type": "Feature", "properties": { "BUSINESS NAME": "NORTH VALLEY AIRCRAFT INC", "OWNER/OPERATOR": "JARROD LINDEMANN", "EMAIL": "andrea@northvalleyaircraft.com", "PHONE": "701-845-2100", "CITY": "VALLEY CITY", "STATE": "ND", "CHIEF PILOT (RESPONSIBLE FOR ALL PILOTS)": "JARROD LINDEMANN", "ADDL PILOTS": "PAUL LINDEMANN", "TYPE OF LICENSE": "MANNED" }, "geometry": { "type": "Point", "coordinates": [ -98.003155, 46.923313 ] } },
{ "type": "Feature", "properties": { "BUSINESS NAME": "NORTHERN EXPANSE AERIAL SOLUTIONS", "OWNER/OPERATOR": "SCOTT ROBERTSON", "EMAIL": "northernexpanseaerial@gmail.com", "PHONE": "701-228-4205", "CITY": "BOTTINEAU", "STATE": "ND", "CHIEF PILOT (RESPONSIBLE FOR ALL PILOTS)": "SCOTT ROBERTSON", "ADDL PILOTS": "NONE LISTED", "TYPE OF LICENSE": "UNMANNED" }, "geometry": { "type": "Point", "coordinates": [ -100.445698, 48.82723 ] } },
{ "type": "Feature", "properties": { "BUSINESS NAME": "NORTHLAND AERIAL AG LLC", "OWNER/OPERATOR": "DOMINIC CARLSON", "EMAIL": "dominic.carlson33@gmail.com", "PHONE": "701-830-2458", "CITY": "EDGELEY", "STATE": "ND", "CHIEF PILOT (RESPONSIBLE FOR ALL PILOTS)": "DOMINIC CARLSON", "ADDL PILOTS": "NONE LISTED", "TYPE OF LICENSE": "UNMANNED" }, "geometry": { "type": "Point", "coordinates": [ -98.712049, 46.360359 ] } },
{ "type": "Feature", "properties": { "BUSINESS NAME": "OLSEM AERIAL APPLICATION SVC", "OWNER/OPERATOR": "BENJAMIN OLSEM", "EMAIL": "oaasllc@gmail.com", "PHONE": "507-360-1281", "CITY": "WESTBROOK", "STATE": "MN", "CHIEF PILOT (RESPONSIBLE FOR ALL PILOTS)": "BENJAMIN OLSEM", "ADDL PILOTS": "NONE LISTED", "TYPE OF LICENSE": "MANNED" }, "geometry": { "type": "Point", "coordinates": [ -95.4345304, 44.0405625 ] } },
{ "type": "Feature", "properties": { "BUSINESS NAME": "PETERSON FARMS SEED", "OWNER/OPERATOR": "BRANDON CHAPPEL", "EMAIL": "brandon.chappel@peterson.ag", "PHONE": "701-793-9369", "CITY": "HARWOOD", "STATE": "ND", "CHIEF PILOT (RESPONSIBLE FOR ALL PILOTS)": "BRANDON CHAPPEL", "ADDL PILOTS": "NONE LISTED", "TYPE OF LICENSE": "UNMANNED" }, "geometry": { "type": "Point", "coordinates": [ -96.880638, 46.979412 ] } },
{ "type": "Feature", "properties": { "BUSINESS NAME": "PLU'S FLYING SERVICE", "OWNER/OPERATOR": "DARRIN PLUHAR", "EMAIL": "pluflyinc@mcn.net", "PHONE": "406-775-6640", "CITY": "EKALAKA", "STATE": "MT", "CHIEF PILOT (RESPONSIBLE FOR ALL PILOTS)": "DARRIN PLUHAR", "ADDL PILOTS": "NONE LISTED", "TYPE OF LICENSE": "MANNED" }, "geometry": { "type": "Point", "coordinates": [ -104.5474596, 45.8907706 ] } },
{ "type": "Feature", "properties": { "BUSINESS NAME": "PREMIER AG PRODUCTS LLC", "OWNER/OPERATOR": "MATT JORISSEN", "EMAIL": "matt.jorissen1@gmail.com", "PHONE": "701-840-8540", "CITY": "ROGERS", "STATE": "ND", "CHIEF PILOT (RESPONSIBLE FOR ALL PILOTS)": "MATT JORISSEN", "ADDL PILOTS": "JOSHUA BROUSE", "TYPE OF LICENSE": "UNMANNED" }, "geometry": { "type": "Point", "coordinates": [ -98.2015232, 47.0718943 ] } },
{ "type": "Feature", "properties": { "BUSINESS NAME": "PRO AG SOLUTIONS LLC", "OWNER/OPERATOR": "CORY PALM", "EMAIL": "proagsolutionsnd@gmail.com", "PHONE": "701-516-4660", "CITY": "BISMARCK", "STATE": "ND", "CHIEF PILOT (RESPONSIBLE FOR ALL PILOTS)": "CORY PALM", "ADDL PILOTS": "NICOLE DOHENY, KOLTEN OHNELL, JAMISON MUTSCHLER", "TYPE OF LICENSE": "UNMANNED" }, "geometry": { "type": "Point", "coordinates": [ -100.783739, 46.808327 ] } },
{ "type": "Feature", "properties": { "BUSINESS NAME": "ROBERTS AG AIR", "OWNER/OPERATOR": "BLANE ROBERT", "EMAIL": "agair@drtel.net", "PHONE": "701-320-4189", "CITY": "LAMOURE", "STATE": "ND", "CHIEF PILOT (RESPONSIBLE FOR ALL PILOTS)": "BLANE ROBERT", "ADDL PILOTS": "NONE LISTED", "TYPE OF LICENSE": "MANNED" }, "geometry": { "type": "Point", "coordinates": [ -98.294543, 46.357192 ] } },
{ "type": "Feature", "properties": { "BUSINESS NAME": "RUBBERT AERIAL INC", "OWNER/OPERATOR": "CHRIS ZIMMER", "EMAIL": "zimmer_8@hotmail.com", "PHONE": "701-272-6322", "CITY": "UPHAM", "STATE": "ND", "CHIEF PILOT (RESPONSIBLE FOR ALL PILOTS)": "CHRIS ZIMMER", "ADDL PILOTS": "JAN RUBBERT, JORDAN LOEWEN, BRADLEY BERENTSON", "TYPE OF LICENSE": "MANNED" }, "geometry": { "type": "Point", "coordinates": [ -100.72832, 48.5815654 ] } },
{ "type": "Feature", "properties": { "BUSINESS NAME": "RYANS AERIAL SERVICES LLC", "OWNER/OPERATOR": "RYAN STEPHAN", "EMAIL": "rasllc2010@gmail.com", "PHONE": "701-263-5580", "CITY": "LANSFORD", "STATE": "ND", "CHIEF PILOT (RESPONSIBLE FOR ALL PILOTS)": "RYAN STEPHAN", "ADDL PILOTS": "NONE LISTED", "TYPE OF LICENSE": "UNMANNED" }, "geometry": { "type": "Point", "coordinates": [ -101.375716, 48.628909 ] } },
{ "type": "Feature", "properties": { "BUSINESS NAME": "SCHNEIDER AERIAL", "OWNER/OPERATOR": "STEVE SCHNEIDER", "EMAIL": "schneideraerial@gondtc.com", "PHONE": "701-208-1630", "CITY": "RUGBY", "STATE": "ND", "CHIEF PILOT (RESPONSIBLE FOR ALL PILOTS)": "STEVE SCHNEIDER", "ADDL PILOTS": "RODNEY ERICKSON, JADEN SCHNEIDER, KAELIN SCHNEIDER", "TYPE OF LICENSE": "MANNED" }, "geometry": { "type": "Point", "coordinates": [ -99.996246, 48.368888 ] } },
{ "type": "Feature", "properties": { "BUSINESS NAME": "SECKERSON AERIAL SPRAYING", "OWNER/OPERATOR": "COREY SECKERSON", "EMAIL": "cloudcover72@gmail.com", "PHONE": "701-269-2992", "CITY": "JAMESTOWN", "STATE": "ND", "CHIEF PILOT (RESPONSIBLE FOR ALL PILOTS)": "COREY SECKERSON", "ADDL PILOTS": "NONE LISTED", "TYPE OF LICENSE": "MANNED" }, "geometry": { "type": "Point", "coordinates": [ -98.708436, 46.910544 ] } },
{ "type": "Feature", "properties": { "BUSINESS NAME": "SKI AG AVIATION LLC", "OWNER/OPERATOR": "STEVE IGLEHART", "EMAIL": "cessna172_9@hotmail.com", "PHONE": "701-337-6546", "CITY": "BISMARCK", "STATE": "ND", "CHIEF PILOT (RESPONSIBLE FOR ALL PILOTS)": "STEVE IGLEHART", "ADDL PILOTS": "BEN GOVEN", "TYPE OF LICENSE": "MANNED" }, "geometry": { "type": "Point", "coordinates": [ -100.783739, 46.808327 ] } },
{ "type": "Feature", "properties": { "BUSINESS NAME": "SKY TRACTOR", "OWNER/OPERATOR": "TRAVIS AMB", "EMAIL": "travis.amb113@gmail.com", "PHONE": "701-361-5695", "CITY": "HILLSBORO", "STATE": "ND", "CHIEF PILOT (RESPONSIBLE FOR ALL PILOTS)": "TRAVIS AMB", "ADDL PILOTS": "NONE LISTED", "TYPE OF LICENSE": "MANNED" }, "geometry": { "type": "Point", "coordinates": [ -97.0620308, 47.4038683 ] } },
{ "type": "Feature", "properties": { "BUSINESS NAME": "SKYTECH AG LLC", "OWNER/OPERATOR": "KYLE KRUEGER", "EMAIL": "kyle@skytechag.com", "PHONE": "701-240-3451", "CITY": "SAWYER", "STATE": "ND", "CHIEF PILOT (RESPONSIBLE FOR ALL PILOTS)": "KYLE KRUEGER", "ADDL PILOTS": "NONE LISTED", "TYPE OF LICENSE": "UNMANNED" }, "geometry": { "type": "Point", "coordinates": [ -101.053765, 48.089732 ] } },
{ "type": "Feature", "properties": { "BUSINESS NAME": "SLATER SPRAY SERVICE INC", "OWNER/OPERATOR": "RICHARD SLATER", "EMAIL": "rslatersprayser@gmail.com", "PHONE": "701-438-2444", "CITY": "MADDOCK", "STATE": "ND", "CHIEF PILOT (RESPONSIBLE FOR ALL PILOTS)": "RICHARD SLATER", "ADDL PILOTS": "ETHAN SPRAGUE", "TYPE OF LICENSE": "MANNED" }, "geometry": { "type": "Point", "coordinates": [ -99.530133, 47.962509 ] } },
{ "type": "Feature", "properties": { "BUSINESS NAME": "SOUTHWEST AERIAL LLC", "OWNER/OPERATOR": "DAN SWANSON", "EMAIL": "swan10@ndsupernet.com", "PHONE": "701-523-4845", "CITY": "BOWMAN", "STATE": "ND", "CHIEF PILOT (RESPONSIBLE FOR ALL PILOTS)": "STEVE IGLEHART", "ADDL PILOTS": "COLT RASMUSSEN", "TYPE OF LICENSE": "MANNED" }, "geometry": { "type": "Point", "coordinates": [ -103.3949061, 46.1830618 ] } },
{ "type": "Feature", "properties": { "BUSINESS NAME": "SPOTTERS AERIAL AG LLC", "OWNER/OPERATOR": "JOSHUA DIPIPPO", "EMAIL": "mackenzie@spottersaa.com", "PHONE": "605-630-1044", "CITY": "KILLDEER", "STATE": "ND", "CHIEF PILOT (RESPONSIBLE FOR ALL PILOTS)": "JOSHUA DIPIPPO", "ADDL PILOTS": "BRYCE MORGAN", "TYPE OF LICENSE": "UNMANNED" }, "geometry": { "type": "Point", "coordinates": [ -102.7539105, 47.3719437 ] } },
{ "type": "Feature", "properties": { "BUSINESS NAME": "SPRAGUES AERIAL SPRAYING INC", "OWNER/OPERATOR": "ROBERT SPRAGUE", "EMAIL": "robertsprague@daktel.com", "PHONE": "701-320-2890", "CITY": "COURTENAY", "STATE": "ND", "CHIEF PILOT (RESPONSIBLE FOR ALL PILOTS)": "ROBERT SPRAGUE", "ADDL PILOTS": "ETHAN SPRAGUE", "TYPE OF LICENSE": "MANNED" }, "geometry": { "type": "Point", "coordinates": [ -98.5664877, 47.2222163 ] } },
{ "type": "Feature", "properties": { "BUSINESS NAME": "SUNDRE SAND & GRAVEL", "OWNER/OPERATOR": "SHELDON HILL", "EMAIL": "sheldon@sundregravel.com", "PHONE": "701-720-2801", "CITY": "MINOT", "STATE": "ND", "CHIEF PILOT (RESPONSIBLE FOR ALL PILOTS)": "SHELDON HILL", "ADDL PILOTS": "NONE LISTED", "TYPE OF LICENSE": "UNMANNED" }, "geometry": { "type": "Point", "coordinates": [ -101.296273, 48.23251 ] } },
{ "type": "Feature", "properties": { "BUSINESS NAME": "TALL TOWERS AG SERVICE", "OWNER/OPERATOR": "TOBY MCPHERSON", "EMAIL": "office@talltowersaviation.com", "PHONE": "701-668-2302", "CITY": "PAGE", "STATE": "ND", "CHIEF PILOT (RESPONSIBLE FOR ALL PILOTS)": "TOBY MCPHERSON", "ADDL PILOTS": "MIKE SCHROEDER, JOHN NIENHUIS", "TYPE OF LICENSE": "MANNED" }, "geometry": { "type": "Point", "coordinates": [ -97.5712038, 47.1597055 ] } },
{ "type": "Feature", "properties": { "BUSINESS NAME": "TLB AIR LLP", "OWNER/OPERATOR": "RYAN ALME", "EMAIL": "ryanalme@msn.com", "PHONE": "701-360-7926", "CITY": "GRAFTON", "STATE": "ND", "CHIEF PILOT (RESPONSIBLE FOR ALL PILOTS)": "RYAN ALME", "ADDL PILOTS": "NONE LISTED", "TYPE OF LICENSE": "MANNED" }, "geometry": { "type": "Point", "coordinates": [ -97.410634, 48.4122108 ] } },
{ "type": "Feature", "properties": { "BUSINESS NAME": "VALKYRIE AG SERVICES", "OWNER/OPERATOR": "JONATHAN POWELL", "EMAIL": "jonpowell85@live.com", "PHONE": "701-640-7999", "CITY": "SCRANTON", "STATE": "ND", "CHIEF PILOT (RESPONSIBLE FOR ALL PILOTS)": "JONATHAN POWELL", "ADDL PILOTS": "NONE LISTED", "TYPE OF LICENSE": "UNMANNED" }, "geometry": { "type": "Point", "coordinates": [ -103.1429501, 46.1480618 ] } },
{ "type": "Feature", "properties": { "BUSINESS NAME": "VALLEY SPRAYERS INC", "OWNER/OPERATOR": "JAYSE WHARAM", "EMAIL": "jaysewharam@hotmail.com", "PHONE": "701-331-0818", "CITY": "PARK RIVER", "STATE": "ND", "CHIEF PILOT (RESPONSIBLE FOR ALL PILOTS)": "JAYSE WHARAM", "ADDL PILOTS": "TY SCHMITT", "TYPE OF LICENSE": "MANNED" }, "geometry": { "type": "Point", "coordinates": [ -97.7411999, 48.3986043 ] } },
{ "type": "Feature", "properties": { "BUSINESS NAME": "VECTOR DISEASE CNTL INTL", "OWNER/OPERATOR": "GARY SIMONTON", "EMAIL": "aerialdivision@vdci.net", "PHONE": "385-238-0093", "CITY": "LITTLE ROCK", "STATE": "AR", "CHIEF PILOT (RESPONSIBLE FOR ALL PILOTS)": "ROB ASLESEN", "ADDL PILOTS": "JON ASLESEN, CHANDLER LADNER", "TYPE OF LICENSE": "MANNED" }, "geometry": { "type": "Point", "coordinates": [ -92.2896267, 34.7465071 ] } },
{ "type": "Feature", "properties": { "BUSINESS NAME": "WAKEFIELD FLIGHT SERVICE INC", "OWNER/OPERATOR": "WILLIAM WAKEFIELD", "EMAIL": "billwake@outlook.com", "PHONE": "701-739-7080", "CITY": "DEVILS LAKE", "STATE": "ND", "CHIEF PILOT (RESPONSIBLE FOR ALL PILOTS)": "WILLIAM WAKEFIELD", "ADDL PILOTS": "NONE LISTED", "TYPE OF LICENSE": "MANNED" }, "geometry": { "type": "Point", "coordinates": [ -98.86512, 48.112779 ] } },
{ "type": "Feature", "properties": { "BUSINESS NAME": "WALHALLA AG SERVICE LLC", "OWNER/OPERATOR": "DAVID CARIGNAN", "EMAIL": "walhallaagservice@utma.com", "PHONE": "701-549-3500", "CITY": "WALHALLA", "STATE": "ND", "CHIEF PILOT (RESPONSIBLE FOR ALL PILOTS)": "DAVID CARIGNAN", "ADDL PILOTS": "NONE LISTED", "TYPE OF LICENSE": "MANNED" }, "geometry": { "type": "Point", "coordinates": [ -97.918148, 48.923328 ] } },
{ "type": "Feature", "properties": { "BUSINESS NAME": "WALKERS LAWNCARE LLC", "OWNER/OPERATOR": "RYAN WALKER", "EMAIL": "walkerslawncare@hotmail.com", "PHONE": "218-779-2744", "CITY": "HILLSBORO", "STATE": "ND", "CHIEF PILOT (RESPONSIBLE FOR ALL PILOTS)": "RYAN WALKER", "ADDL PILOTS": "JORDAN AVISO, ELI KUEBER", "TYPE OF LICENSE": "UNMANNED" }, "geometry": { "type": "Point", "coordinates": [ -97.0620308, 47.4038683 ] } },
{ "type": "Feature", "properties": { "BUSINESS NAME": "WILD RICE AIR AG INC", "OWNER/OPERATOR": "RODNEY ERICKSON", "EMAIL": "r2inc@hotmail.com", "PHONE": "701-367-5243", "CITY": "RUTLAND", "STATE": "ND", "CHIEF PILOT (RESPONSIBLE FOR ALL PILOTS)": "RODNEY ERICKSON", "ADDL PILOTS": "NONE LISTED", "TYPE OF LICENSE": "MANNED" }, "geometry": { "type": "Point", "coordinates": [ -97.508984, 46.053019 ] } },
{ "type": "Feature", "properties": { "BUSINESS NAME": "WILDE AIR SERVICE LLC", "OWNER/OPERATOR": "ISAAC WILDE", "EMAIL": "wildeairservice@gmail.com", "PHONE": "605-860-8692", "CITY": "VOLGA", "STATE": "SD", "CHIEF PILOT (RESPONSIBLE FOR ALL PILOTS)": "JORDAN WILLIAMS", "ADDL PILOTS": "NONE LISTED", "TYPE OF LICENSE": "MANNED" }, "geometry": { "type": "Point", "coordinates": [ -96.926448, 44.32358 ] } },
{ "type": "Feature", "properties": { "BUSINESS NAME": "WINFIELD UNITED", "OWNER/OPERATOR": "MATTHEW MITTAG", "EMAIL": "mmittag@landolakes.com", "PHONE": "701-970-9677", "CITY": "FARGO", "STATE": "ND", "CHIEF PILOT (RESPONSIBLE FOR ALL PILOTS)": "ALEXANDER CURLEE", "ADDL PILOTS": "DAKOTA WOLFE", "TYPE OF LICENSE": "UNMANNED" }, "geometry": { "type": "Point", "coordinates": [ -96.789821, 46.877229 ] } },
{ "type": "Feature", "properties": { "BUSINESS NAME": "WINFIELD UNITED", "OWNER/OPERATOR": "ALEXIS DICKSON", "EMAIL": "adickson@landolakes.com", "PHONE": "701-371-3684", "CITY": "GALESBURG", "STATE": "ND", "CHIEF PILOT (RESPONSIBLE FOR ALL PILOTS)": "ALEXIS DICKSON", "ADDL PILOTS": "TROY GULLEKSON", "TYPE OF LICENSE": "UNMANNED" }, "geometry": { "type": "Point", "coordinates": [ -97.4064772, 47.2699845 ] } }
]
}
