{
"type": "FeatureCollection",
"name": "ndac-directory-georeferenced",
"crs": { "type": "name", "properties": { "name": "urn:ogc:def:crs:OGC:1.3:CRS84" } },
"features": [
{ "type": "Feature", "properties": { "BUSINESS NAME": "(PENDING) LOFTON AVIATION INC", "OWNER/OPERATOR": "CHAD LOFTON", "EMAIL": "chadlofton@hotmail.com", "PHONE": "218-779-1678", "CITY": "GEORGETOWN", "STATE": "MN", "CHIEF PILOT (RESPONSIBLE FOR ALL PILOTS)": "CHAD LOFTON", "ADDL PILOTS": "NONE LISTED", "TYPE OF LICENSE": "MANNED", "orig_x": -96.7946792, "orig_y": 47.080225 }, "geometry": { "type": "Point", "coordinates": [ -96.793579739333879, 47.081120072865879 ] } },
{ "type": "Feature", "properties": { "BUSINESS NAME": "(PENDING) SMITH, JOEL", "OWNER/OPERATOR": "DIVAN BEUKES", "EMAIL": "joel@ssgrains.com", "PHONE": "701-520-9688", "CITY": "WALHALLA", "STATE": "ND", "CHIEF PILOT (RESPONSIBLE FOR ALL PILOTS)": "DIVAN BEUKES", "ADDL PILOTS": "NONE LISTED", "TYPE OF LICENSE": "UNMANNED", "orig_x": -97.918148, "orig_y": 48.923328 }, "geometry": { "type": "Point", "coordinates": [ -97.904473574422425, 48.919005556971989 ] } },
{ "type": "Feature", "properties": { "BUSINESS NAME": "(PENDING) VOGEL, MICHAEL", "OWNER/OPERATOR": "MICHAEL VOGEL", "EMAIL": "mikevogel@hotmail.com", "PHONE": "701-320-0624", "CITY": "LAMOURE", "STATE": "ND", "CHIEF PILOT (RESPONSIBLE FOR ALL PILOTS)": "MICHAEL VOGEL", "ADDL PILOTS": "NONE LISTED", "TYPE OF LICENSE": "UNMANNED", "orig_x": -98.294543, "orig_y": 46.357192 }, "geometry": { "type": "Point", "coordinates": [ -98.297326000210887, 46.346860050086335 ] } },
{ "type": "Feature", "properties": { "BUSINESS NAME": "(PENDING) WEST CENTRAL AG-AIR INC", "OWNER/OPERATOR": "RYAN LUBBEN", "EMAIL": "wcagair@live.com", "PHONE": "218-770-0130", "CITY": "FERGUS FALLS", "STATE": "MN", "CHIEF PILOT (RESPONSIBLE FOR ALL PILOTS)": "RYAN LUBBEN", "ADDL PILOTS": "NONE LISTED", "TYPE OF LICENSE": "MANNED", "orig_x": -96.077558, "orig_y": 46.283015 }, "geometry": { "type": "Point", "coordinates": [ -96.076499061040082, 46.282331524255738 ] } },
{ "type": "Feature", "properties": { "BUSINESS NAME": "3RD GEN AVIATION LLC", "OWNER/OPERATOR": "BEN HALSTENSON", "EMAIL": "bhalstenson@3rdgenaviation.com", "PHONE": "701-739-5463", "CITY": "LISBON", "STATE": "ND", "CHIEF PILOT (RESPONSIBLE FOR ALL PILOTS)": "BEN HALSTENSON", "ADDL PILOTS": "NONE LISTED", "TYPE OF LICENSE": "MANNED", "orig_x": -97.68121, "orig_y": 46.441634 }, "geometry": { "type": "Point", "coordinates": [ -97.67033789682344, 46.421618109262504 ] } },
{ "type": "Feature", "properties": { "BUSINESS NAME": "4R FARM INSIGHTS LLC", "OWNER/OPERATOR": "MATTIE SCHMITT", "EMAIL": "mattie@4rfarminsights.com", "PHONE": "701-833-4316", "CITY": "TOWNER", "STATE": "ND", "CHIEF PILOT (RESPONSIBLE FOR ALL PILOTS)": "MATTIE SCHMITT", "ADDL PILOTS": "NONE LISTED", "TYPE OF LICENSE": "UNMANNED", "orig_x": -100.405412, "orig_y": 48.345833 }, "geometry": { "type": "Point", "coordinates": [ -100.404037789665708, 48.345531387923707 ] } },
{ "type": "Feature", "properties": { "BUSINESS NAME": "701 AERIAL APPLICATION LLC", "OWNER/OPERATOR": "TRISTEN UGLEM", "EMAIL": "ttuglem@gmail.com", "PHONE": "218-779-7382", "CITY": "NORTHWOOD", "STATE": "ND", "CHIEF PILOT (RESPONSIBLE FOR ALL PILOTS)": "TRISTEN UGLEM", "ADDL PILOTS": "NONE LISTED", "TYPE OF LICENSE": "UNMANNED", "orig_x": -97.5667543, "orig_y": 47.7341547 }, "geometry": { "type": "Point", "coordinates": [ -97.56742669943597, 47.734391819947142 ] } },
{ "type": "Feature", "properties": { "BUSINESS NAME": "AB SPRAY LLC", "OWNER/OPERATOR": "PARKER SKOLNESS", "EMAIL": "parker.skolness@gmail.com", "PHONE": "701-866-1977", "CITY": "GLYNDON", "STATE": "MN", "CHIEF PILOT (RESPONSIBLE FOR ALL PILOTS)": "PARKER SKOLNESS", "ADDL PILOTS": "NONE LISTED", "TYPE OF LICENSE": "UNMANNED", "orig_x": -96.578963, "orig_y": 46.87524 }, "geometry": { "type": "Point", "coordinates": [ -96.577924038464175, 46.875946982550118 ] } },
{ "type": "Feature", "properties": { "BUSINESS NAME": "AERIAL AG DRONE SERVICES", "OWNER/OPERATOR": "BRAYDEN BUSCHE", "EMAIL": "aerialagdrone@gmail.com", "PHONE": "701-660-9230", "CITY": "WYNDMERE", "STATE": "ND", "CHIEF PILOT (RESPONSIBLE FOR ALL PILOTS)": "BRAYDEN BUSCHE", "ADDL PILOTS": "NONE LISTED", "TYPE OF LICENSE": "UNMANNED", "orig_x": -97.13231, "orig_y": 46.266627 }, "geometry": { "type": "Point", "coordinates": [ -97.131864337418719, 46.266315580163685 ] } },
{ "type": "Feature", "properties": { "BUSINESS NAME": "AERIAL CROP CARE CO", "OWNER/OPERATOR": "PIERSON CHASE", "EMAIL": "aerialcrop@westriv.com", "PHONE": "701-878-4735", "CITY": "HEBRON", "STATE": "ND", "CHIEF PILOT (RESPONSIBLE FOR ALL PILOTS)": "PERSON CHASE", "ADDL PILOTS": "ROBERT WILSON, KEVIN HANSEN", "TYPE OF LICENSE": "MANNED", "orig_x": -102.0454416, "orig_y": 46.9005626 }, "geometry": { "type": "Point", "coordinates": [ -102.044697741853184, 46.900720445169711 ] } },
{ "type": "Feature", "properties": { "BUSINESS NAME": "AERIAL PLOT", "OWNER/OPERATOR": "TRAVIS BENSON", "EMAIL": "travisbenson.mn@gmail.com", "PHONE": "320-314-2075", "CITY": "WAYZATA", "STATE": "MN", "CHIEF PILOT (RESPONSIBLE FOR ALL PILOTS)": "TRAVIS BENSON", "ADDL PILOTS": "NONE LISTED", "TYPE OF LICENSE": "UNMANNED", "orig_x": -93.511947, "orig_y": 44.970759 }, "geometry": { "type": "Point", "coordinates": [ -93.511886960359604, 44.970560220787327 ] } },
{ "type": "Feature", "properties": { "BUSINESS NAME": "AERO SPRAYING SERVICE INC", "OWNER/OPERATOR": "RICK MARBURGER", "EMAIL": "rckmrbrgr@gmail.com", "PHONE": "701-570-2342", "CITY": "WILLISTON", "STATE": "ND", "CHIEF PILOT (RESPONSIBLE FOR ALL PILOTS)": "RICK MARBURGER", "ADDL PILOTS": "DUSTIN VILLINES, TANNER OVERLAND", "TYPE OF LICENSE": "MANNED", "orig_x": -103.621814, "orig_y": 48.1465457 }, "geometry": { "type": "Point", "coordinates": [ -103.647809358330903, 48.157551714269879 ] } },
{ "type": "Feature", "properties": { "BUSINESS NAME": "AGRITECH AVIATION INC, MILLER SPRAYING", "OWNER/OPERATOR": "JEROLD MILLER", "EMAIL": "sales@agritechinc.com", "PHONE": "701-728-6614", "CITY": "DEERING", "STATE": "ND", "CHIEF PILOT (RESPONSIBLE FOR ALL PILOTS)": "JEROLD MILLER", "ADDL PILOTS": "STEVEN MAIRS", "TYPE OF LICENSE": "MANNED", "orig_x": -101.05182, "orig_y": 48.395572 }, "geometry": { "type": "Point", "coordinates": [ -101.051729736756371, 48.385326757872711 ] } },
{ "type": "Feature", "properties": { "BUSINESS NAME": "AGVANTAGE AERIAL LLC", "OWNER/OPERATOR": "LANCE MEIER", "EMAIL": "lance.e.meier@gmail.com", "PHONE": "701-367-4728", "CITY": "ZEELAND", "STATE": "ND", "CHIEF PILOT (RESPONSIBLE FOR ALL PILOTS)": "LANCE MEIER", "ADDL PILOTS": "CODY JOHNSON (PENDING)", "TYPE OF LICENSE": "UNMANNED", "orig_x": -99.830673, "orig_y": 45.969984 }, "geometry": { "type": "Point", "coordinates": [ -99.830179399991124, 45.970464006731817 ] } },
{ "type": "Feature", "properties": { "BUSINESS NAME": "AIR DAKOTA FLITE INC", "OWNER/OPERATOR": "CHARLES LINDQUIST", "EMAIL": "airdakota@ndsupernet.com", "PHONE": "701-567-2069", "CITY": "HETTINGER", "STATE": "ND", "CHIEF PILOT (RESPONSIBLE FOR ALL PILOTS)": "CHARLES LINDQUIST", "ADDL PILOTS": "MICHAEL LINDQUIST, JAMES LINDQUIST", "TYPE OF LICENSE": "MANNED", "orig_x": -102.6368239, "orig_y": 46.0013946 }, "geometry": { "type": "Point", "coordinates": [ -102.63695676422897, 46.002310143346762 ] } },
{ "type": "Feature", "properties": { "BUSINESS NAME": "AIR KRAFT SPRAYING INC", "OWNER/OPERATOR": "JAKE KRAFT", "EMAIL": "aksjake@gmail.com", "PHONE": "605-848-2624", "CITY": "TIMBER LAKE", "STATE": "SD", "CHIEF PILOT (RESPONSIBLE FOR ALL PILOTS)": "JAKE KRAFT", "ADDL PILOTS": "TYRONE KRAFT, TANNER KRAFT, ISAAC KRAFT", "TYPE OF LICENSE": "MANNED", "orig_x": -101.074034, "orig_y": 45.429155 }, "geometry": { "type": "Point", "coordinates": [ -101.073345088403912, 45.430175653246728 ] } },
{ "type": "Feature", "properties": { "BUSINESS NAME": "AIRBORNE CUSTOM SPRAYING", "OWNER/OPERATOR": "ROB ASLESEN", "EMAIL": "admin@airborncustomspraying.com", "PHONE": "218-456-2465", "CITY": "HALSTAD", "STATE": "MN", "CHIEF PILOT (RESPONSIBLE FOR ALL PILOTS)": "ROB ASLESEN", "ADDL PILOTS": "JON ASLESEN, MARLIN INGEBRETSON, CHAD HANSON, RAFAEL FLORES, JOSH MAIER, ZACH WOLF, JACOB RADERMACHER", "TYPE OF LICENSE": "MANNED", "orig_x": -96.828626, "orig_y": 47.3516282 }, "geometry": { "type": "Point", "coordinates": [ -96.827259345468789, 47.351060569749379 ] } },
{ "type": "Feature", "properties": { "BUSINESS NAME": "AIRWORKS", "OWNER/OPERATOR": "ANDREW ASLESEN", "EMAIL": "andrew@airworksmn.com", "PHONE": "218-770-1248", "CITY": "SABIN", "STATE": "MN", "CHIEF PILOT (RESPONSIBLE FOR ALL PILOTS)": "ANDREW ASLESEN", "ADDL PILOTS": "DEAN LESMEISTER", "TYPE OF LICENSE": "MANNED", "orig_x": -96.653133, "orig_y": 46.779685 }, "geometry": { "type": "Point", "coordinates": [ -96.653901957088038, 46.780168363490667 ] } },
{ "type": "Feature", "properties": { "BUSINESS NAME": "ARTHUR AVIATION LLC", "OWNER/OPERATOR": "MATT HOVDENES", "EMAIL": "matt.hovdenes@arthurcompanies.com", "PHONE": "218-790-2765", "CITY": "ARTHUR", "STATE": "ND", "CHIEF PILOT (RESPONSIBLE FOR ALL PILOTS)": "MATT HOVDENES", "ADDL PILOTS": "ANDREW GERSWOLD", "TYPE OF LICENSE": "MANNED", "orig_x": -97.2181431, "orig_y": 47.1041435 }, "geometry": { "type": "Point", "coordinates": [ -97.218261655268392, 47.105007307321927 ] } },
{ "type": "Feature", "properties": { "BUSINESS NAME": "BAIR AVIATION INC", "OWNER/OPERATOR": "CRAIG BAIR", "EMAIL": "bairaviation@gmail.com", "PHONE": "402-366-4300", "CITY": "LAKE CITY", "STATE": "SD", "CHIEF PILOT (RESPONSIBLE FOR ALL PILOTS)": "CRAIG BAIR", "ADDL PILOTS": "NONE LISTED", "TYPE OF LICENSE": "MANNED", "orig_x": -97.4145399, "orig_y": 45.7252321 }, "geometry": { "type": "Point", "coordinates": [ -97.413156448801402, 45.725459214679773 ] } },
{ "type": "Feature", "properties": { "BUSINESS NAME": "BEAR CREEK FLYING SERVICE", "OWNER/OPERATOR": "TRAVIS MCPHERSON", "EMAIL": "bearcreekflying@drtel.net", "PHONE": "701-710-1220", "CITY": "OAKES", "STATE": "ND", "CHIEF PILOT (RESPONSIBLE FOR ALL PILOTS)": "TRAVIS MCPHERSON", "ADDL PILOTS": "NONE LISTED", "TYPE OF LICENSE": "MANNED", "orig_x": -98.090379, "orig_y": 46.138579 }, "geometry": { "type": "Point", "coordinates": [ -98.088875406615372, 46.138865501213246 ] } },
{ "type": "Feature", "properties": { "BUSINESS NAME": "BLUE EARTH FLYING SERVICE", "OWNER/OPERATOR": "LUKE STEIER", "EMAIL": "carly.steier@hotmail.com", "PHONE": "507-526-7264", "CITY": "BLUE EARTH", "STATE": "MN", "CHIEF PILOT (RESPONSIBLE FOR ALL PILOTS)": "LUKE STEIER", "ADDL PILOTS": "JACOB HUBER, NORBERT GREGORY, NATHAN TAFELMEYER", "TYPE OF LICENSE": "MANNED", "orig_x": -94.1021821, "orig_y": 43.637455 }, "geometry": { "type": "Point", "coordinates": [ -94.103384759322878, 43.638450242872011 ] } },
{ "type": "Feature", "properties": { "BUSINESS NAME": "BLUE SKIES AG LLC", "OWNER/OPERATOR": "TYLER FJELDAHL", "EMAIL": "tyler.fjeldahl@gmail.com", "PHONE": "701-822-0854", "CITY": "PLAZA", "STATE": "ND", "CHIEF PILOT (RESPONSIBLE FOR ALL PILOTS)": "TYLER FJELDAHL", "ADDL PILOTS": "NONE LISTED", "TYPE OF LICENSE": "UNMANNED", "orig_x": -101.9604636, "orig_y": 48.0247697 }, "geometry": { "type": "Point", "coordinates": [ -101.96054221176324, 48.025506691812048 ] } },
{ "type": "Feature", "properties": { "BUSINESS NAME": "BOWERS AERIAL LLC", "OWNER/OPERATOR": "BLAKE BOWERS", "EMAIL": "bowersaerial@gmail.com", "PHONE": "701-818-7459", "CITY": "MOHALL", "STATE": "ND", "CHIEF PILOT (RESPONSIBLE FOR ALL PILOTS)": "BLAKE BOWERS", "ADDL PILOTS": "CHAD GRAVESEN, SANJIV BISHESAR", "TYPE OF LICENSE": "MANNED", "orig_x": -101.513217, "orig_y": 48.763356 }, "geometry": { "type": "Point", "coordinates": [ -101.513027307601689, 48.763521428572297 ] } },
{ "type": "Feature", "properties": { "BUSINESS NAME": "BREKKE AVIATION INC", "OWNER/OPERATOR": "JESS BREKKE", "EMAIL": "jess@brekkeaviation.com", "PHONE": "701-644-2618", "CITY": "EDMORE", "STATE": "ND", "CHIEF PILOT (RESPONSIBLE FOR ALL PILOTS)": "JESS BREKKE", "ADDL PILOTS": "CRISTIANO BARROS DA COSTA", "TYPE OF LICENSE": "MANNED", "orig_x": -98.45428, "orig_y": 48.413337 }, "geometry": { "type": "Point", "coordinates": [ -98.453009683503353, 48.414007735153781 ] } },
{ "type": "Feature", "properties": { "BUSINESS NAME": "BUCKSHOT SPRAYING SERVICE", "OWNER/OPERATOR": "CURTIS BUCKMAN", "EMAIL": "buckshotspraying@yahoo.com", "PHONE": "701-575-8477", "CITY": "BELFIELD", "STATE": "ND", "CHIEF PILOT (RESPONSIBLE FOR ALL PILOTS)": "CURTIS BUCKMAN", "ADDL PILOTS": "CINDY BUCKMAN", "TYPE OF LICENSE": "UNMANNED", "orig_x": -103.1996219, "orig_y": 46.8852906 }, "geometry": { "type": "Point", "coordinates": [ -103.200757832624134, 46.884460524019502 ] } },
{ "type": "Feature", "properties": { "BUSINESS NAME": "CAVALIER AIR SERVICE", "OWNER/OPERATOR": "JEREMY SENG", "EMAIL": "jeremycseng@gmail.com", "PHONE": "701-265-4466", "CITY": "CAVALIER", "STATE": "ND", "CHIEF PILOT (RESPONSIBLE FOR ALL PILOTS)": "JEREMY SENG", "ADDL PILOTS": "NONE LISTED", "TYPE OF LICENSE": "MANNED", "orig_x": -97.6223098, "orig_y": 48.7938814 }, "geometry": { "type": "Point", "coordinates": [ -97.612949867327643, 48.802574647867104 ] } },
{ "type": "Feature", "properties": { "BUSINESS NAME": "CLIFFORD FARMERS COOP ELEVATOR", "OWNER/OPERATOR": "STEVE BALDOCK", "EMAIL": "kody@cliffordfarmerscoop.com", "PHONE": "701-289-0018", "CITY": "CLIFFORD", "STATE": "ND", "CHIEF PILOT (RESPONSIBLE FOR ALL PILOTS)": "RYAN GROTH", "ADDL PILOTS": "NONE LISTED", "TYPE OF LICENSE": "MANNED", "orig_x": -97.4106449, "orig_y": 47.3480408 }, "geometry": { "type": "Point", "coordinates": [ -97.409240528849168, 47.348304128891776 ] } },
{ "type": "Feature", "properties": { "BUSINESS NAME": "CUSTOM CROP CARE LLC", "OWNER/OPERATOR": "DEREK MORTEN", "EMAIL": "derekmorten39@gmail.com", "PHONE": "218-779-6637", "CITY": "LARIMORE", "STATE": "ND", "CHIEF PILOT (RESPONSIBLE FOR ALL PILOTS)": "DEREK MORTEN", "ADDL PILOTS": "NONE LISTED", "TYPE OF LICENSE": "MANNED", "orig_x": -97.6238516, "orig_y": 47.9047773 }, "geometry": { "type": "Point", "coordinates": [ -97.642914160529543, 47.888349377395045 ] } },
{ "type": "Feature", "properties": { "BUSINESS NAME": "DAKOTA AG SERVICE INC", "OWNER/OPERATOR": "RYAN FURMAN", "EMAIL": "dasinc@venturecomm.net", "PHONE": "605-448-2264", "CITY": "BRITTON", "STATE": "SD", "CHIEF PILOT (RESPONSIBLE FOR ALL PILOTS)": "CRAIG BAIR", "ADDL PILOTS": "DARRIN PLUHAR", "TYPE OF LICENSE": "MANNED", "orig_x": -97.7496136, "orig_y": 45.7917043 }, "geometry": { "type": "Point", "coordinates": [ -97.749568916679166, 45.790784112250833 ] } },
{ "type": "Feature", "properties": { "BUSINESS NAME": "DAKOTA AIR SPRAY", "OWNER/OPERATOR": "PHILIP SOUKUP", "EMAIL": "psoukup@dakotaairspray.com", "PHONE": "701-550-0134", "CITY": "ROLLA", "STATE": "ND", "CHIEF PILOT (RESPONSIBLE FOR ALL PILOTS)": "ERIK KLINDT", "ADDL PILOTS": "ALEXANDER VIGER, PAUL DEAL", "TYPE OF LICENSE": "MANNED", "orig_x": -99.617922, "orig_y": 48.857784 }, "geometry": { "type": "Point", "coordinates": [ -99.61826721166274, 48.85770967418447 ] } },
{ "type": "Feature", "properties": { "BUSINESS NAME": "DAKOTA DRONE LLC", "OWNER/OPERATOR": "DANE MUELLER", "EMAIL": "dmueller1305@gmail.com", "PHONE": "701-789-1305", "CITY": "COOPERSTOWN", "STATE": "ND", "CHIEF PILOT (RESPONSIBLE FOR ALL PILOTS)": "DANE MUELLER", "ADDL PILOTS": "NONE LISTED", "TYPE OF LICENSE": "UNMANNED", "orig_x": -98.1239843, "orig_y": 47.4444384 }, "geometry": { "type": "Point", "coordinates": [ -98.122708617324776, 47.445032437407278 ] } },
{ "type": "Feature", "properties": { "BUSINESS NAME": "DAKOTA HELICOPTERS INC", "OWNER/OPERATOR": "SHAWN MORTEN", "EMAIL": "smorten@dakotahelicopters.com", "PHONE": "701-873-4100", "CITY": "BEULAH", "STATE": "ND", "CHIEF PILOT (RESPONSIBLE FOR ALL PILOTS)": "SHAWN MORTEN", "ADDL PILOTS": "NONE LISTED", "TYPE OF LICENSE": "MANNED", "orig_x": -101.777946, "orig_y": 47.26334 }, "geometry": { "type": "Point", "coordinates": [ -101.77811273297759, 47.263838272103378 ] } },
{ "type": "Feature", "properties": { "BUSINESS NAME": "DAN'S FLYING SERVICE INC", "OWNER/OPERATOR": "DANIEL GEIST", "EMAIL": "dansflyingservice@gmail.com", "PHONE": "218-281-1372", "CITY": "CROOKSTON", "STATE": "MN", "CHIEF PILOT (RESPONSIBLE FOR ALL PILOTS)": "DANIEL GEIST", "ADDL PILOTS": "TYLER NESS, ANDREAS GEIST", "TYPE OF LICENSE": "MANNED", "orig_x": -96.6081167, "orig_y": 47.7739988 }, "geometry": { "type": "Point", "coordinates": [ -96.596357777620582, 47.780807028946434 ] } },
{ "type": "Feature", "properties": { "BUSINESS NAME": "DEKALB AVIATION LLC", "OWNER/OPERATOR": "FLETCHER DEKALB", "EMAIL": "fdekalb@gmail.com", "PHONE": "509-322-6543", "CITY": "WILLISTON", "STATE": "ND", "CHIEF PILOT (RESPONSIBLE FOR ALL PILOTS)": "FLETCHER DEKALB", "ADDL PILOTS": "NONE LISTED", "TYPE OF LICENSE": "MANNED", "orig_x": -103.621814, "orig_y": 48.1465457 }, "geometry": { "type": "Point", "coordinates": [ -103.596859288199781, 48.133487384616082 ] } },
{ "type": "Feature", "properties": { "BUSINESS NAME": "DETERDING AERIAL LLC", "OWNER/OPERATOR": "JIM DETERDING", "EMAIL": "deterdingaerial@yahoo.com", "PHONE": "580-532-4490", "CITY": "POND CREEK", "STATE": "OK", "CHIEF PILOT (RESPONSIBLE FOR ALL PILOTS)": "JACOB SEVERIN", "ADDL PILOTS": "DANIEL YODER", "TYPE OF LICENSE": "MANNED", "orig_x": -97.8011661, "orig_y": 36.669197 }, "geometry": { "type": "Point", "coordinates": [ -97.800188110443372, 36.670318521082557 ] } },
{ "type": "Feature", "properties": { "BUSINESS NAME": "DONALDSON PRECISION SPRAYING LLC", "OWNER/OPERATOR": "ETHAN DONALDSON", "EMAIL": "hallockethan@gmail.com", "PHONE": "701-410-8049", "CITY": "MANVEL", "STATE": "ND", "CHIEF PILOT (RESPONSIBLE FOR ALL PILOTS)": "ETHAN DONALDSON", "ADDL PILOTS": "NONE LISTED", "TYPE OF LICENSE": "UNMANNED", "orig_x": -97.176465, "orig_y": 48.0777615 }, "geometry": { "type": "Point", "coordinates": [ -97.176816799138976, 48.07732797557685 ] } },
{ "type": "Feature", "properties": { "BUSINESS NAME": "DRONE ZONE SPRAY SERVICE", "OWNER/OPERATOR": "MICHAEL VEER", "EMAIL": "mveer@gondtc.com", "PHONE": "701-381-9707", "CITY": "DEVILS LAKE", "STATE": "ND", "CHIEF PILOT (RESPONSIBLE FOR ALL PILOTS)": "MICHAEL VEER", "ADDL PILOTS": "NONE LISTED", "TYPE OF LICENSE": "UNMANNED", "orig_x": -98.86512, "orig_y": 48.112779 }, "geometry": { "type": "Point", "coordinates": [ -98.86453780720673, 48.112042322324704 ] } },
{ "type": "Feature", "properties": { "BUSINESS NAME": "EAGLE EYE DRONE SERVICES", "OWNER/OPERATOR": "SHANE MARTINSON", "EMAIL": "shanemartinson@hotmail.com", "PHONE": "701-399-6016", "CITY": "HARVEY", "STATE": "ND", "CHIEF PILOT (RESPONSIBLE FOR ALL PILOTS)": "SHANE MARTINSON", "ADDL PILOTS": "BREVON MARTINSON", "TYPE OF LICENSE": "UNMANNED", "orig_x": -99.935404, "orig_y": 47.769723 }, "geometry": { "type": "Point", "coordinates": [ -99.936963637761394, 47.770186586484002 ] } },
{ "type": "Feature", "properties": { "BUSINESS NAME": "ELEVATED AG SOLUTIONS LLC", "OWNER/OPERATOR": "SPENCER SCHWAB", "EMAIL": "bigssfarms@gmail.com", "PHONE": "701-680-7640", "CITY": "LISBON", "STATE": "ND", "CHIEF PILOT (RESPONSIBLE FOR ALL PILOTS)": "SPENCER SCHWAB", "ADDL PILOTS": "NONE LISTED", "TYPE OF LICENSE": "UNMANNED", "orig_x": -97.68121, "orig_y": 46.441634 }, "geometry": { "type": "Point", "coordinates": [ -97.683409528024086, 46.461125730863898 ] } },
{ "type": "Feature", "properties": { "BUSINESS NAME": "FIELD FLIGHT SERVICES LLC", "OWNER/OPERATOR": "JAMIE SEEDORF", "EMAIL": "jamieseedorf737@gmail.com", "PHONE": "701-498-0138", "CITY": "MANDAN", "STATE": "ND", "CHIEF PILOT (RESPONSIBLE FOR ALL PILOTS)": "JAMIE SEEDORF", "ADDL PILOTS": "NONE LISTED", "TYPE OF LICENSE": "UNMANNED", "orig_x": -100.889704, "orig_y": 46.826415 }, "geometry": { "type": "Point", "coordinates": [ -100.891252992430339, 46.827014780028968 ] } },
{ "type": "Feature", "properties": { "BUSINESS NAME": "FLY LOW AVIATION LLC", "OWNER/OPERATOR": "CALLY ARNDT", "EMAIL": "flylownd@gmail.com", "PHONE": "719-239-1558", "CITY": "ASHLEY", "STATE": "ND", "CHIEF PILOT (RESPONSIBLE FOR ALL PILOTS)": "TYSON LUKASAVIGE", "ADDL PILOTS": "TYLER CHAMBERLAIN, JASON HURT", "TYPE OF LICENSE": "MANNED", "orig_x": -99.371503, "orig_y": 46.034141 }, "geometry": { "type": "Point", "coordinates": [ -99.371151556376532, 46.034743048246995 ] } },
{ "type": "Feature", "properties": { "BUSINESS NAME": "FLYING G AVIATION INC", "OWNER/OPERATOR": "TROY GEORGESON", "EMAIL": "flyingg@polarcomm.com", "PHONE": "701-454-6588", "CITY": "DRAYTON", "STATE": "ND", "CHIEF PILOT (RESPONSIBLE FOR ALL PILOTS)": "TROY GEORGESON", "ADDL PILOTS": "NONE LISTED", "TYPE OF LICENSE": "MANNED", "orig_x": -97.1780148, "orig_y": 48.5711277 }, "geometry": { "type": "Point", "coordinates": [ -97.178933950445099, 48.570908092352468 ] } },
{ "type": "Feature", "properties": { "BUSINESS NAME": "FLYITON AG LLC", "OWNER/OPERATOR": "LYNN JOHNSON", "EMAIL": "ljohn1340@aol.com", "PHONE": "701-360-5966", "CITY": "GRAFTON", "STATE": "ND", "CHIEF PILOT (RESPONSIBLE FOR ALL PILOTS)": "LYNN JOHNSON", "ADDL PILOTS": "KYLE SVEEN, ROBERT JOHNSON", "TYPE OF LICENSE": "MANNED", "orig_x": -97.410634, "orig_y": 48.4122108 }, "geometry": { "type": "Point", "coordinates": [ -97.412235208855932, 48.422636807181604 ] } },
{ "type": "Feature", "properties": { "BUSINESS NAME": "FOREST FLYING SERVICE", "OWNER/OPERATOR": "KEVIN FOREST", "EMAIL": "forestflying@yahoo.com", "PHONE": "701-305-0072", "CITY": "LANGDON", "STATE": "ND", "CHIEF PILOT (RESPONSIBLE FOR ALL PILOTS)": "KEVIN FOREST", "ADDL PILOTS": "DAVID HART, JESSE FETSCH", "TYPE OF LICENSE": "MANNED", "orig_x": -98.3678245, "orig_y": 48.7605902 }, "geometry": { "type": "Point", "coordinates": [ -98.401315273691779, 48.747912771649112 ] } },
{ "type": "Feature", "properties": { "BUSINESS NAME": "FROEMKE AERIAL SOLUTIONS", "OWNER/OPERATOR": "STEVEN FROEMKE", "EMAIL": "info@froemkeas.com", "PHONE": "701-680-0564", "CITY": "LISBON", "STATE": "ND", "CHIEF PILOT (RESPONSIBLE FOR ALL PILOTS)": "STEVEN FROEMKE", "ADDL PILOTS": "NONE LISTED", "TYPE OF LICENSE": "UNMANNED", "orig_x": -97.68121, "orig_y": 46.441634 }, "geometry": { "type": "Point", "coordinates": [ -97.687733600194406, 46.439669257567608 ] } },
{ "type": "Feature", "properties": { "BUSINESS NAME": "GASPER AIR SPRAY INC", "OWNER/OPERATOR": "MICHAEL GASPER", "EMAIL": "gasperairspray@gmail.com", "PHONE": "218-289-0076", "CITY": "CROOKSTON", "STATE": "MN", "CHIEF PILOT (RESPONSIBLE FOR ALL PILOTS)": "MICHAEL GASPER", "ADDL PILOTS": "BRADY DAVIS", "TYPE OF LICENSE": "MANNED", "orig_x": -96.6081167, "orig_y": 47.7739988 }, "geometry": { "type": "Point", "coordinates": [ -96.620273554917404, 47.767090236876662 ] } },
{ "type": "Feature", "properties": { "BUSINESS NAME": "GREAT PLAINS AERO INC", "OWNER/OPERATOR": "JULIUS BREKHUS", "EMAIL": "paklbrek@restel.com", "PHONE": "701-848-6116", "CITY": "TOLLEY", "STATE": "ND", "CHIEF PILOT (RESPONSIBLE FOR ALL PILOTS)": "JULIUS BREKHUS", "ADDL PILOTS": "DAKOTA PETERSEN, PAUL SOULEK, JOE BAKER, ", "TYPE OF LICENSE": "MANNED", "orig_x": -101.8273851, "orig_y": 48.7289124 }, "geometry": { "type": "Point", "coordinates": [ -101.825896241502363, 48.729286044948338 ] } },
{ "type": "Feature", "properties": { "BUSINESS NAME": "HANSEN AG AIR LLC", "OWNER/OPERATOR": "ROSS HANSEN", "EMAIL": "ross.p.hansen@icloud.com", "PHONE": "218-849-6300", "CITY": "DETROIT LAKES", "STATE": "MN", "CHIEF PILOT (RESPONSIBLE FOR ALL PILOTS)": "ROSS HANSEN", "ADDL PILOTS": "NONE LISTED", "TYPE OF LICENSE": "UNMANNED", "orig_x": -95.845325, "orig_y": 46.817181 }, "geometry": { "type": "Point", "coordinates": [ -95.845539581136848, 46.818116556743547 ] } },
{ "type": "Feature", "properties": { "BUSINESS NAME": "HART FLYING SERVICE", "OWNER/OPERATOR": "DAVID HART", "EMAIL": "tmmtrans@yahoo.com", "PHONE": "701-305-0458", "CITY": "LANGDON", "STATE": "ND", "CHIEF PILOT (RESPONSIBLE FOR ALL PILOTS)": "DAVID HART", "ADDL PILOTS": "NONE LISTED", "TYPE OF LICENSE": "MANNED", "orig_x": -98.3678245, "orig_y": 48.7605902 }, "geometry": { "type": "Point", "coordinates": [ -98.334574169845496, 48.770676525336931 ] } },
{ "type": "Feature", "properties": { "BUSINESS NAME": "HARVEST PARTNERS GENERAL PARTNERSHIP", "OWNER/OPERATOR": "JACOB CLAUSON", "EMAIL": "clausonja92@gmail.com", "PHONE": "701-680-5676", "CITY": "MAPLETON", "STATE": "ND", "CHIEF PILOT (RESPONSIBLE FOR ALL PILOTS)": "JACOB CLAUSON", "ADDL PILOTS": "NONE LISTED", "TYPE OF LICENSE": "UNMANNED", "orig_x": -97.052587, "orig_y": 46.889138 }, "geometry": { "type": "Point", "coordinates": [ -97.051367858446625, 46.889356666560786 ] } },
{ "type": "Feature", "properties": { "BUSINESS NAME": "HEUER AGRI DRONE SERVICES", "OWNER/OPERATOR": "ELEANOR HEUER", "EMAIL": "heueragridrone@outlook.com", "PHONE": "701-238-9046", "CITY": "LEONARD", "STATE": "ND", "CHIEF PILOT (RESPONSIBLE FOR ALL PILOTS)": "ELEANOR HEUER", "ADDL PILOTS": "MATT HEUER", "TYPE OF LICENSE": "UNMANNED", "orig_x": -97.245647, "orig_y": 46.651915 }, "geometry": { "type": "Point", "coordinates": [ -97.245206892261763, 46.651261048500189 ] } },
{ "type": "Feature", "properties": { "BUSINESS NAME": "HILLHEAD DRONE SERVICE LLC", "OWNER/OPERATOR": "THAD GRIMSRUD", "EMAIL": "thadgrimsrud@gmail.com", "PHONE": "605-695-5600", "CITY": "BROOKINGS", "STATE": "SD", "CHIEF PILOT (RESPONSIBLE FOR ALL PILOTS)": "THAD GRIMSRUD", "ADDL PILOTS": "NONE LISTED", "TYPE OF LICENSE": "UNMANNED", "orig_x": -96.79844, "orig_y": 44.311461 }, "geometry": { "type": "Point", "coordinates": [ -96.796959232234613, 44.311540274312051 ] } },
{ "type": "Feature", "properties": { "BUSINESS NAME": "HINKLE AIRSPRAY INC", "OWNER/OPERATOR": "JASON HINKLE", "EMAIL": "sarahinkle37@gmail.com", "PHONE": "701-265-8405", "CITY": "CAVALIER", "STATE": "ND", "CHIEF PILOT (RESPONSIBLE FOR ALL PILOTS)": "JASON HINKLE", "ADDL PILOTS": "JUSTIN HINKLE", "TYPE OF LICENSE": "MANNED", "orig_x": -97.6223098, "orig_y": 48.7938814 }, "geometry": { "type": "Point", "coordinates": [ -97.62975896685613, 48.785070767369056 ] } },
{ "type": "Feature", "properties": { "BUSINESS NAME": "HOISTAD FLYING SERVICE", "OWNER/OPERATOR": "RICK HOISTAD", "EMAIL": "ajstroh@gmail.com", "PHONE": "701-308-0169", "CITY": "GWINNER", "STATE": "ND", "CHIEF PILOT (RESPONSIBLE FOR ALL PILOTS)": "ANDREW STROH", "ADDL PILOTS": "NONE LISTED", "TYPE OF LICENSE": "MANNED", "orig_x": -97.662596, "orig_y": 46.225796 }, "geometry": { "type": "Point", "coordinates": [ -97.663119722087103, 46.225691345911507 ] } },
{ "type": "Feature", "properties": { "BUSINESS NAME": "HOWATT AIR INC", "OWNER/OPERATOR": "RYAN HOWATT", "EMAIL": "howattair@gmail.com", "PHONE": "701-370-9710", "CITY": "LANGDON", "STATE": "ND", "CHIEF PILOT (RESPONSIBLE FOR ALL PILOTS)": "RYAN HOWATT", "ADDL PILOTS": "NONE LISTED", "TYPE OF LICENSE": "MANNED", "orig_x": -98.3678245, "orig_y": 48.7605902 }, "geometry": { "type": "Point", "coordinates": [ -98.370321794047115, 48.751398166157735 ] } },
{ "type": "Feature", "properties": { "BUSINESS NAME": "HYDRO AG LLC", "OWNER/OPERATOR": "BRENT WANNER", "EMAIL": "wanner_4020@hotmail.com", "PHONE": "701-290-6663", "CITY": "DICKINSON", "STATE": "ND", "CHIEF PILOT (RESPONSIBLE FOR ALL PILOTS)": "BRENT WANNER", "ADDL PILOTS": "NONE LISTED", "TYPE OF LICENSE": "UNMANNED", "orig_x": -102.7896242, "orig_y": 46.8791756 }, "geometry": { "type": "Point", "coordinates": [ -102.789943372372662, 46.878350707848966 ] } },
{ "type": "Feature", "properties": { "BUSINESS NAME": "IDEAL SEED SOLUTIONS", "OWNER/OPERATOR": "JASON BROSSART", "EMAIL": "idealseedsolutions@gmail.com", "PHONE": "701-208-0424", "CITY": "RUGBY", "STATE": "ND", "CHIEF PILOT (RESPONSIBLE FOR ALL PILOTS)": "JASON BROSSART", "ADDL PILOTS": "NONE LISTED", "TYPE OF LICENSE": "UNMANNED", "orig_x": -99.996246, "orig_y": 48.368888 }, "geometry": { "type": "Point", "coordinates": [ -100.009200618220746, 48.363667828221089 ] } },
{ "type": "Feature", "properties": { "BUSINESS NAME": "KH AVIATION LLC", "OWNER/OPERATOR": "RYAN HOWATT", "EMAIL": "howattair@gmail.com", "PHONE": "701-370-9710", "CITY": "LANGDON", "STATE": "ND", "CHIEF PILOT (RESPONSIBLE FOR ALL PILOTS)": "RYAN HOWATT", "ADDL PILOTS": "DANIEL KUBAL", "TYPE OF LICENSE": "MANNED", "orig_x": -98.3678245, "orig_y": 48.7605902 }, "geometry": { "type": "Point", "coordinates": [ -98.365958243209533, 48.77192329636334 ] } },
{ "type": "Feature", "properties": { "BUSINESS NAME": "KNUTSON FLYING SERVICE INC", "OWNER/OPERATOR": "EUGENE KNUTSON", "EMAIL": "kflyer@nccray.com", "PHONE": "701-641-3276", "CITY": "TIOGA", "STATE": "ND", "CHIEF PILOT (RESPONSIBLE FOR ALL PILOTS)": "EUGENE KNUTSON", "ADDL PILOTS": "NONE LISTED", "TYPE OF LICENSE": "MANNED", "orig_x": -102.938238, "orig_y": 48.397244 }, "geometry": { "type": "Point", "coordinates": [ -102.937455761556947, 48.397060026815751 ] } },
{ "type": "Feature", "properties": { "BUSINESS NAME": "KRACKE SPRAYING SERVICE INC", "OWNER/OPERATOR": "CURTIS KRACKE", "EMAIL": "curtiskracke@gmail.com", "PHONE": "701-799-9008", "CITY": "FARGO", "STATE": "ND", "CHIEF PILOT (RESPONSIBLE FOR ALL PILOTS)": "CURTIS KRACKE", "ADDL PILOTS": "NONE LISTED", "TYPE OF LICENSE": "MANNED", "orig_x": -96.789821, "orig_y": 46.877229 }, "geometry": { "type": "Point", "coordinates": [ -96.775122708487174, 46.881344295539307 ] } },
{ "type": "Feature", "properties": { "BUSINESS NAME": "KROEPLIN AIR SERVICE LLC", "OWNER/OPERATOR": "DOUG KROEPLIN", "EMAIL": "makayla@kroeplinair.com", "PHONE": "605-852-2030", "CITY": "HIGHMORE", "STATE": "SD", "CHIEF PILOT (RESPONSIBLE FOR ALL PILOTS)": "LEVI STODDARD", "ADDL PILOTS": "MARK BECKER", "TYPE OF LICENSE": "MANNED", "orig_x": -99.441501, "orig_y": 44.521373 }, "geometry": { "type": "Point", "coordinates": [ -99.442534578967553, 44.521328860982528 ] } },
{ "type": "Feature", "properties": { "BUSINESS NAME": "KTI", "OWNER/OPERATOR": "JEFF KYLLO", "EMAIL": "kti@midconetwork.com", "PHONE": "218-779-2754", "CITY": "LARIMORE", "STATE": "ND", "CHIEF PILOT (RESPONSIBLE FOR ALL PILOTS)": "JEFF KYLLO", "ADDL PILOTS": "NONE LISTED", "TYPE OF LICENSE": "PRIVATE ONLY", "orig_x": -97.6238516, "orig_y": 47.9047773 }, "geometry": { "type": "Point", "coordinates": [ -97.611955549345225, 47.922382169971613 ] } },
{ "type": "Feature", "properties": { "BUSINESS NAME": "LAKEVIEW AVIATION INC", "OWNER/OPERATOR": "BRIAN WELKEN", "EMAIL": "brian@seenterprisesinc.com", "PHONE": "701-840-8784", "CITY": "SANBORN", "STATE": "ND", "CHIEF PILOT (RESPONSIBLE FOR ALL PILOTS)": "BRIAN WELKEN", "ADDL PILOTS": "NONE LISTED", "TYPE OF LICENSE": "MANNED", "orig_x": -98.224259, "orig_y": 46.942207 }, "geometry": { "type": "Point", "coordinates": [ -98.224213684241775, 46.941426687522252 ] } },
{ "type": "Feature", "properties": { "BUSINESS NAME": "LARSON HELICOPTERS LLC", "OWNER/OPERATOR": "MICHAEL LARSON", "EMAIL": "larheli@arvig.net", "PHONE": "218-346-5719", "CITY": "PERHAM", "STATE": "MN", "CHIEF PILOT (RESPONSIBLE FOR ALL PILOTS)": "MICHAEL LARSON", "ADDL PILOTS": "DYLAN LARSON", "TYPE OF LICENSE": "MANNED", "orig_x": -95.5725415, "orig_y": 46.5944042 }, "geometry": { "type": "Point", "coordinates": [ -95.571989372554526, 46.595105664454564 ] } },
{ "type": "Feature", "properties": { "BUSINESS NAME": "LIMKE, BRAD", "OWNER/OPERATOR": "BRAD LIMKE", "EMAIL": "brad.limke@gmail.com", "PHONE": "701-509-3953", "CITY": "CARPIO", "STATE": "ND", "CHIEF PILOT (RESPONSIBLE FOR ALL PILOTS)": "BRAD LIMKE", "ADDL PILOTS": "MICHAEL LIMKE", "TYPE OF LICENSE": "UNMANNED", "orig_x": -101.714606, "orig_y": 48.442517 }, "geometry": { "type": "Point", "coordinates": [ -101.713087972760874, 48.442709519281401 ] } },
{ "type": "Feature", "properties": { "BUSINESS NAME": "LITTLE HEART APPLICATORS LLC", "OWNER/OPERATOR": "LOGAN RIPPLE", "EMAIL": "caveman9112@gmail.com", "PHONE": "970-623-0299", "CITY": "SAINT ANTHONY", "STATE": "ND", "CHIEF PILOT (RESPONSIBLE FOR ALL PILOTS)": "LOGAN RIPPLE", "ADDL PILOTS": "NONE LISTED", "TYPE OF LICENSE": "UNMANNED", "orig_x": -100.9104541, "orig_y": 46.6175194 }, "geometry": { "type": "Point", "coordinates": [ -100.909638065961417, 46.618155168806368 ] } },
{ "type": "Feature", "properties": { "BUSINESS NAME": "LOCAL AG SOLUTIONS LLC", "OWNER/OPERATOR": "TARYN DOAN", "EMAIL": "tarynallmaras@gmail.com", "PHONE": "701-391-6130", "CITY": "FESSENDEN", "STATE": "ND", "CHIEF PILOT (RESPONSIBLE FOR ALL PILOTS)": "PATRICK DOAN", "ADDL PILOTS": "TARYN ALLMARAS", "TYPE OF LICENSE": "UNMANNED", "orig_x": -99.629289, "orig_y": 47.649168 }, "geometry": { "type": "Point", "coordinates": [ -99.629079953513497, 47.649737829977418 ] } },
{ "type": "Feature", "properties": { "BUSINESS NAME": "LT ENTERPRISES INC", "OWNER/OPERATOR": "LUKE TAYLOR", "EMAIL": "luke@ltenterprisesnd.com", "PHONE": "701-570-2646", "CITY": "WATFORD CITY", "STATE": "ND", "CHIEF PILOT (RESPONSIBLE FOR ALL PILOTS)": "LUKE TAYLOR", "ADDL PILOTS": "JONATHAN HAYS, ADAM TAYLOR, RICK FOSS, JEREMY RENKEN", "TYPE OF LICENSE": "MANNED", "orig_x": -103.283247, "orig_y": 47.802241 }, "geometry": { "type": "Point", "coordinates": [ -103.284223326084799, 47.803006820559062 ] } },
{ "type": "Feature", "properties": { "BUSINESS NAME": "LYTLE DRONE APPLICATIONS LLC", "OWNER/OPERATOR": "TIM LYTLE", "EMAIL": "tdblytle@midrivers.com", "PHONE": "406-855-6097", "CITY": "GLENDIVE", "STATE": "MT", "CHIEF PILOT (RESPONSIBLE FOR ALL PILOTS)": "TIM LYTLE", "ADDL PILOTS": "NONE LISTED", "TYPE OF LICENSE": "UNMANNED", "orig_x": -104.71246, "orig_y": 47.10529 }, "geometry": { "type": "Point", "coordinates": [ -104.713179098553908, 47.104898317477321 ] } },
{ "type": "Feature", "properties": { "BUSINESS NAME": "MASTER OF NONE LLC", "OWNER/OPERATOR": "SHAWN STEINBERGER", "EMAIL": "shawn@masterofnonellc.com", "PHONE": "701-580-5664", "CITY": "WILLISTON", "STATE": "ND", "CHIEF PILOT (RESPONSIBLE FOR ALL PILOTS)": "SHAWN STEINBERGER", "ADDL PILOTS": "NOAH FARMER, DILLON FARMER", "TYPE OF LICENSE": "UNMANNED", "orig_x": -103.621814, "orig_y": 48.1465457 }, "geometry": { "type": "Point", "coordinates": [ -103.620143210045327, 48.14758630450509 ] } },
{ "type": "Feature", "properties": { "BUSINESS NAME": "MATEJCEK INC", "OWNER/OPERATOR": "KAMRON MATEJCEK", "EMAIL": "kamron.matejcek@gmail.com", "PHONE": "701-270-9921BROCKET", "CITY": "BROCKET", "STATE": "ND", "CHIEF PILOT (RESPONSIBLE FOR ALL PILOTS)": "KAMRON MATEJCEK", "ADDL PILOTS": "NONE LISTED", "TYPE OF LICENSE": "UNMANNED", "orig_x": -98.3570499, "orig_y": 48.2130558 }, "geometry": { "type": "Point", "coordinates": [ -98.35644244404908, 48.213563373059827 ] } },
{ "type": "Feature", "properties": { "BUSINESS NAME": "MATTERN SPRAY SERVICE", "OWNER/OPERATOR": "RODNEY MATTERN", "EMAIL": "matternspray@bektel.com", "PHONE": "701-321-0767", "CITY": "NAPOLEON", "STATE": "ND", "CHIEF PILOT (RESPONSIBLE FOR ALL PILOTS)": "RODNEY MATTERN", "ADDL PILOTS": "BRIAN SPEAS", "TYPE OF LICENSE": "MANNED", "orig_x": -99.7667783, "orig_y": 46.5045396 }, "geometry": { "type": "Point", "coordinates": [ -99.76759405419071, 46.505074905947602 ] } },
{ "type": "Feature", "properties": { "BUSINESS NAME": "MEDINA FLYING SERVICE", "OWNER/OPERATOR": "BRIAN RAU", "EMAIL": "medinaflying@aol.com", "PHONE": "701-320-9505", "CITY": "MEDINA", "STATE": "ND", "CHIEF PILOT (RESPONSIBLE FOR ALL PILOTS)": "BRIAN RAU", "ADDL PILOTS": "NONE LISTED", "TYPE OF LICENSE": "MANNED", "orig_x": -99.299833, "orig_y": 46.893876 }, "geometry": { "type": "Point", "coordinates": [ -99.301269890523429, 46.894773871345173 ] } },
{ "type": "Feature", "properties": { "BUSINESS NAME": "MEYER DRONE SERVICES LLC", "OWNER/OPERATOR": "SAMUEL MEYER", "EMAIL": "samuel.meyer02@gmail.com", "PHONE": "701-609-6788", "CITY": "POLLOCK", "STATE": "SD", "CHIEF PILOT (RESPONSIBLE FOR ALL PILOTS)": "SAMUEL MEYER", "ADDL PILOTS": "NONE LISTED", "TYPE OF LICENSE": "UNMANNED", "orig_x": -100.288457, "orig_y": 45.901383 }, "geometry": { "type": "Point", "coordinates": [ -100.289587370936502, 45.902024489088525 ] } },
{ "type": "Feature", "properties": { "BUSINESS NAME": "MIDWEST CUSTOM AG LLC", "OWNER/OPERATOR": "DEREK WUNDERLICH", "EMAIL": "derek@midwestcustomag.com", "PHONE": "701-630-4713", "CITY": "WHEATLAND", "STATE": "ND", "CHIEF PILOT (RESPONSIBLE FOR ALL PILOTS)": "DEREK WUNDERLICH", "ADDL PILOTS": "NONE LISTED", "TYPE OF LICENSE": "UNMANNED", "orig_x": -97.345368, "orig_y": 46.907475 }, "geometry": { "type": "Point", "coordinates": [ -97.346259713607566, 46.906687392124027 ] } },
{ "type": "Feature", "properties": { "BUSINESS NAME": "MIDWEST DRONE APPLICATORS LLC", "OWNER/OPERATOR": "COLE STOCK", "EMAIL": "midwestdrone24@gmail.com", "PHONE": "701-321-1688", "CITY": "WISHEK", "STATE": "ND", "CHIEF PILOT (RESPONSIBLE FOR ALL PILOTS)": "COLE STOCK", "ADDL PILOTS": "ZACHARY FISCHER", "TYPE OF LICENSE": "UNMANNED", "orig_x": -99.557057, "orig_y": 46.256918 }, "geometry": { "type": "Point", "coordinates": [ -99.557121773046291, 46.25645658419451 ] } },
{ "type": "Feature", "properties": { "BUSINESS NAME": "MIDWEST SKYDRONE SERVICES LLC", "OWNER/OPERATOR": "RYAN BUMANN", "EMAIL": "ryanbumann@hotmail.com", "PHONE": "952-607-7620", "CITY": "PRIOR LAKE", "STATE": "MN", "CHIEF PILOT (RESPONSIBLE FOR ALL PILOTS)": "RYAN BUMANN", "ADDL PILOTS": "NONE LISTED", "TYPE OF LICENSE": "UNMANNED", "orig_x": -93.4226873, "orig_y": 44.7133271 }, "geometry": { "type": "Point", "coordinates": [ -93.423638673200216, 44.712644907028135 ] } },
{ "type": "Feature", "properties": { "BUSINESS NAME": "MILLER SPRAYING", "OWNER/OPERATOR": "JEROLD MILLER", "EMAIL": "sales@agritechinc.com", "PHONE": "701-833-5363", "CITY": "DEERING", "STATE": "ND", "CHIEF PILOT (RESPONSIBLE FOR ALL PILOTS)": "JEROLD MILLER", "ADDL PILOTS": "STEVEN MAIRS", "TYPE OF LICENSE": "MANNED", "orig_x": -101.05182, "orig_y": 48.395572 }, "geometry": { "type": "Point", "coordinates": [ -101.050575840883795, 48.406188961442439 ] } },
{ "type": "Feature", "properties": { "BUSINESS NAME": "MILNOR AG AIR INC", "OWNER/OPERATOR": "MARK GAINOR", "EMAIL": "markgainor@icloud.com", "PHONE": "701-680-1001", "CITY": "MILNOR", "STATE": "ND", "CHIEF PILOT (RESPONSIBLE FOR ALL PILOTS)": "MARK GAINOR", "ADDL PILOTS": "NONE LISTED", "TYPE OF LICENSE": "MANNED", "orig_x": -97.456202, "orig_y": 46.259128 }, "geometry": { "type": "Point", "coordinates": [ -97.4577492613126, 46.258321226439861 ] } },
{ "type": "Feature", "properties": { "BUSINESS NAME": "MINNKOTA AERIAL", "OWNER/OPERATOR": "ANDREW STEINER", "EMAIL": "andrew@minnkotaaerial.com", "PHONE": "320-288-6107", "CITY": "HANCOCK", "STATE": "MN", "CHIEF PILOT (RESPONSIBLE FOR ALL PILOTS)": "ANDREW STEINER", "ADDL PILOTS": "NONE LISTED", "TYPE OF LICENSE": "UNMANNED", "orig_x": -95.796714, "orig_y": 45.497461 }, "geometry": { "type": "Point", "coordinates": [ -95.797105472437337, 45.496643569665032 ] } },
{ "type": "Feature", "properties": { "BUSINESS NAME": "MORTEN AERO AERVICE", "OWNER/OPERATOR": "JESSE MORTEN", "EMAIL": "jessemorten@hotmail.com", "PHONE": "218-779-4244", "CITY": "LARIMORE", "STATE": "ND", "CHIEF PILOT (RESPONSIBLE FOR ALL PILOTS)": "JESSE MORTEN", "ADDL PILOTS": "DEREK MORTEN, RICHARD GOETZ, MATTHEW SCHANILEC", "TYPE OF LICENSE": "MANNED", "orig_x": -97.6238516, "orig_y": 47.9047773 }, "geometry": { "type": "Point", "coordinates": [ -97.618703814499668, 47.90179931824018 ] } },
{ "type": "Feature", "properties": { "BUSINESS NAME": "NATURAL NORTH LLC", "OWNER/OPERATOR": "KEVIN BEHRENS", "EMAIL": "natural.northmn@gmail.com", "PHONE": "218-297-0110", "CITY": "ALEXANDRIA", "STATE": "MN", "CHIEF PILOT (RESPONSIBLE FOR ALL PILOTS)": "KEVIN BEHRENS", "ADDL PILOTS": "NONE LISTED", "TYPE OF LICENSE": "UNMANNED", "orig_x": -95.3745015, "orig_y": 45.8835101 }, "geometry": { "type": "Point", "coordinates": [ -95.3760686137622, 45.882532038589062 ] } },
{ "type": "Feature", "properties": { "BUSINESS NAME": "NE AERIAL DRONE SPRAYING LLC", "OWNER/OPERATOR": "ADAM OLSON", "EMAIL": "neaerialdronesprayingllc@gmail.com", "PHONE": "701-331-2268", "CITY": "EDINBURG", "STATE": "ND", "CHIEF PILOT (RESPONSIBLE FOR ALL PILOTS)": "ADAM OLSON", "ADDL PILOTS": "NONE LISTED", "TYPE OF LICENSE": "UNMANNED", "orig_x": -97.8620378, "orig_y": 48.4966607 }, "geometry": { "type": "Point", "coordinates": [ -97.861781228570536, 48.496727109810791 ] } },
{ "type": "Feature", "properties": { "BUSINESS NAME": "NODAK DRONES", "OWNER/OPERATOR": "MASON WEDE", "EMAIL": "nodakdrones@gmail.com", "PHONE": "701-650-8536", "CITY": "CARRINGTON", "STATE": "ND", "CHIEF PILOT (RESPONSIBLE FOR ALL PILOTS)": "MASON WEDE", "ADDL PILOTS": "ALEXANDER MENKE, GREGORY GRENZ", "TYPE OF LICENSE": "UNMANNED", "orig_x": -99.126224, "orig_y": 47.44972 }, "geometry": { "type": "Point", "coordinates": [ -99.127299581430378, 47.448895699240346 ] } },
{ "type": "Feature", "properties": { "BUSINESS NAME": "NORTH VALLEY AIRCRAFT INC", "OWNER/OPERATOR": "JARROD LINDEMANN", "EMAIL": "andrea@northvalleyaircraft.com", "PHONE": "701-845-2100", "CITY": "VALLEY CITY", "STATE": "ND", "CHIEF PILOT (RESPONSIBLE FOR ALL PILOTS)": "JARROD LINDEMANN", "ADDL PILOTS": "PAUL LINDEMANN", "TYPE OF LICENSE": "MANNED", "orig_x": -98.003155, "orig_y": 46.923313 }, "geometry": { "type": "Point", "coordinates": [ -98.003598229596165, 46.923835206406622 ] } },
{ "type": "Feature", "properties": { "BUSINESS NAME": "NORTHERN EXPANSE AERIAL SOLUTIONS", "OWNER/OPERATOR": "SCOTT ROBERTSON", "EMAIL": "northernexpanseaerial@gmail.com", "PHONE": "701-228-4205", "CITY": "BOTTINEAU", "STATE": "ND", "CHIEF PILOT (RESPONSIBLE FOR ALL PILOTS)": "SCOTT ROBERTSON", "ADDL PILOTS": "NONE LISTED", "TYPE OF LICENSE": "UNMANNED", "orig_x": -100.445698, "orig_y": 48.82723 }, "geometry": { "type": "Point", "coordinates": [ -100.445240118302195, 48.827708789131464 ] } },
{ "type": "Feature", "properties": { "BUSINESS NAME": "NORTHLAND AERIAL AG LLC", "OWNER/OPERATOR": "DOMINIC CARLSON", "EMAIL": "dominic.carlson33@gmail.com", "PHONE": "701-830-2458", "CITY": "EDGELEY", "STATE": "ND", "CHIEF PILOT (RESPONSIBLE FOR ALL PILOTS)": "DOMINIC CARLSON", "ADDL PILOTS": "NONE LISTED", "TYPE OF LICENSE": "UNMANNED", "orig_x": -98.712049, "orig_y": 46.360359 }, "geometry": { "type": "Point", "coordinates": [ -98.711181782801688, 46.361194625813795 ] } },
{ "type": "Feature", "properties": { "BUSINESS NAME": "OLSEM AERIAL APPLICATION SVC", "OWNER/OPERATOR": "BENJAMIN OLSEM", "EMAIL": "oaasllc@gmail.com", "PHONE": "507-360-1281", "CITY": "WESTBROOK", "STATE": "MN", "CHIEF PILOT (RESPONSIBLE FOR ALL PILOTS)": "BENJAMIN OLSEM", "ADDL PILOTS": "NONE LISTED", "TYPE OF LICENSE": "MANNED", "orig_x": -95.4345304, "orig_y": 44.0405625 }, "geometry": { "type": "Point", "coordinates": [ -95.434330287743023, 44.040601173231529 ] } },
{ "type": "Feature", "properties": { "BUSINESS NAME": "PETERSON FARMS SEED", "OWNER/OPERATOR": "BRANDON CHAPPEL", "EMAIL": "brandon.chappel@peterson.ag", "PHONE": "701-793-9369", "CITY": "HARWOOD", "STATE": "ND", "CHIEF PILOT (RESPONSIBLE FOR ALL PILOTS)": "BRANDON CHAPPEL", "ADDL PILOTS": "NONE LISTED", "TYPE OF LICENSE": "UNMANNED", "orig_x": -96.880638, "orig_y": 46.979412 }, "geometry": { "type": "Point", "coordinates": [ -96.881475264074979, 46.980166921666921 ] } },
{ "type": "Feature", "properties": { "BUSINESS NAME": "PLU'S FLYING SERVICE", "OWNER/OPERATOR": "DARRIN PLUHAR", "EMAIL": "pluflyinc@mcn.net", "PHONE": "406-775-6640", "CITY": "EKALAKA", "STATE": "MT", "CHIEF PILOT (RESPONSIBLE FOR ALL PILOTS)": "DARRIN PLUHAR", "ADDL PILOTS": "NONE LISTED", "TYPE OF LICENSE": "MANNED", "orig_x": -104.5474596, "orig_y": 45.8907706 }, "geometry": { "type": "Point", "coordinates": [ -104.54874874369132, 45.890645416040044 ] } },
{ "type": "Feature", "properties": { "BUSINESS NAME": "PREMIER AG PRODUCTS LLC", "OWNER/OPERATOR": "MATT JORISSEN", "EMAIL": "matt.jorissen1@gmail.com", "PHONE": "701-840-8540", "CITY": "ROGERS", "STATE": "ND", "CHIEF PILOT (RESPONSIBLE FOR ALL PILOTS)": "MATT JORISSEN", "ADDL PILOTS": "JOSHUA BROUSE", "TYPE OF LICENSE": "UNMANNED", "orig_x": -98.2015232, "orig_y": 47.0718943 }, "geometry": { "type": "Point", "coordinates": [ -98.202826078554708, 47.071161684062602 ] } },
{ "type": "Feature", "properties": { "BUSINESS NAME": "PRO AG SOLUTIONS LLC", "OWNER/OPERATOR": "CORY PALM", "EMAIL": "proagsolutionsnd@gmail.com", "PHONE": "701-516-4660", "CITY": "BISMARCK", "STATE": "ND", "CHIEF PILOT (RESPONSIBLE FOR ALL PILOTS)": "CORY PALM", "ADDL PILOTS": "NICOLE DOHENY, KOLTEN OHNELL, JAMISON MUTSCHLER", "TYPE OF LICENSE": "UNMANNED", "orig_x": -100.783739, "orig_y": 46.808327 }, "geometry": { "type": "Point", "coordinates": [ -100.797827771983833, 46.803738915204555 ] } },
{ "type": "Feature", "properties": { "BUSINESS NAME": "ROBERTS AG AIR", "OWNER/OPERATOR": "BLANE ROBERT", "EMAIL": "agair@drtel.net", "PHONE": "701-320-4189", "CITY": "LAMOURE", "STATE": "ND", "CHIEF PILOT (RESPONSIBLE FOR ALL PILOTS)": "BLANE ROBERT", "ADDL PILOTS": "NONE LISTED", "TYPE OF LICENSE": "MANNED", "orig_x": -98.294543, "orig_y": 46.357192 }, "geometry": { "type": "Point", "coordinates": [ -98.291121156302424, 46.368132535743491 ] } },
{ "type": "Feature", "properties": { "BUSINESS NAME": "RUBBERT AERIAL INC", "OWNER/OPERATOR": "CHRIS ZIMMER", "EMAIL": "zimmer_8@hotmail.com", "PHONE": "701-272-6322", "CITY": "UPHAM", "STATE": "ND", "CHIEF PILOT (RESPONSIBLE FOR ALL PILOTS)": "CHRIS ZIMMER", "ADDL PILOTS": "JAN RUBBERT, JORDAN LOEWEN, BRADLEY BERENTSON", "TYPE OF LICENSE": "MANNED", "orig_x": -100.72832, "orig_y": 48.5815654 }, "geometry": { "type": "Point", "coordinates": [ -100.729891300631607, 48.581533343011763 ] } },
{ "type": "Feature", "properties": { "BUSINESS NAME": "RYANS AERIAL SERVICES LLC", "OWNER/OPERATOR": "RYAN STEPHAN", "EMAIL": "rasllc2010@gmail.com", "PHONE": "701-263-5580", "CITY": "LANSFORD", "STATE": "ND", "CHIEF PILOT (RESPONSIBLE FOR ALL PILOTS)": "RYAN STEPHAN", "ADDL PILOTS": "NONE LISTED", "TYPE OF LICENSE": "UNMANNED", "orig_x": -101.375716, "orig_y": 48.628909 }, "geometry": { "type": "Point", "coordinates": [ -101.376632286216733, 48.628394595440113 ] } },
{ "type": "Feature", "properties": { "BUSINESS NAME": "SCHNEIDER AERIAL", "OWNER/OPERATOR": "STEVE SCHNEIDER", "EMAIL": "schneideraerial@gondtc.com", "PHONE": "701-208-1630", "CITY": "RUGBY", "STATE": "ND", "CHIEF PILOT (RESPONSIBLE FOR ALL PILOTS)": "STEVE SCHNEIDER", "ADDL PILOTS": "RODNEY ERICKSON, JADEN SCHNEIDER, KAELIN SCHNEIDER", "TYPE OF LICENSE": "MANNED", "orig_x": -99.996246, "orig_y": 48.368888 }, "geometry": { "type": "Point", "coordinates": [ -99.981034774115386, 48.372950152131821 ] } },
{ "type": "Feature", "properties": { "BUSINESS NAME": "SECKERSON AERIAL SPRAYING", "OWNER/OPERATOR": "COREY SECKERSON", "EMAIL": "cloudcover72@gmail.com", "PHONE": "701-269-2992", "CITY": "JAMESTOWN", "STATE": "ND", "CHIEF PILOT (RESPONSIBLE FOR ALL PILOTS)": "COREY SECKERSON", "ADDL PILOTS": "NONE LISTED", "TYPE OF LICENSE": "MANNED", "orig_x": -98.708436, "orig_y": 46.910544 }, "geometry": { "type": "Point", "coordinates": [ -98.707097728858514, 46.910634244322729 ] } },
{ "type": "Feature", "properties": { "BUSINESS NAME": "SKI AG AVIATION LLC", "OWNER/OPERATOR": "STEVE IGLEHART", "EMAIL": "cessna172_9@hotmail.com", "PHONE": "701-337-6546", "CITY": "BISMARCK", "STATE": "ND", "CHIEF PILOT (RESPONSIBLE FOR ALL PILOTS)": "STEVE IGLEHART", "ADDL PILOTS": "BEN GOVEN", "TYPE OF LICENSE": "MANNED", "orig_x": -100.783739, "orig_y": 46.808327 }, "geometry": { "type": "Point", "coordinates": [ -100.769526624911578, 46.813113087351503 ] } },
{ "type": "Feature", "properties": { "BUSINESS NAME": "SKY TRACTOR", "OWNER/OPERATOR": "TRAVIS AMB", "EMAIL": "travis.amb113@gmail.com", "PHONE": "701-361-5695", "CITY": "HILLSBORO", "STATE": "ND", "CHIEF PILOT (RESPONSIBLE FOR ALL PILOTS)": "TRAVIS AMB", "ADDL PILOTS": "NONE LISTED", "TYPE OF LICENSE": "MANNED", "orig_x": -97.0620308, "orig_y": 47.4038683 }, "geometry": { "type": "Point", "coordinates": [ -97.0674385472837, 47.39325339165682 ] } },
{ "type": "Feature", "properties": { "BUSINESS NAME": "SKYTECH AG LLC", "OWNER/OPERATOR": "KYLE KRUEGER", "EMAIL": "kyle@skytechag.com", "PHONE": "701-240-3451", "CITY": "SAWYER", "STATE": "ND", "CHIEF PILOT (RESPONSIBLE FOR ALL PILOTS)": "KYLE KRUEGER", "ADDL PILOTS": "NONE LISTED", "TYPE OF LICENSE": "UNMANNED", "orig_x": -101.053765, "orig_y": 48.089732 }, "geometry": { "type": "Point", "coordinates": [ -101.054289838960244, 48.0893884538349 ] } },
{ "type": "Feature", "properties": { "BUSINESS NAME": "SOUTHWEST AERIAL LLC", "OWNER/OPERATOR": "DAN SWANSON", "EMAIL": "swan10@ndsupernet.com", "PHONE": "701-523-4845", "CITY": "BOWMAN", "STATE": "ND", "CHIEF PILOT (RESPONSIBLE FOR ALL PILOTS)": "STEVE IGLEHART", "ADDL PILOTS": "COLT RASMUSSEN", "TYPE OF LICENSE": "MANNED", "orig_x": -103.3949061, "orig_y": 46.1830618 }, "geometry": { "type": "Point", "coordinates": [ -103.394531451016974, 46.183799210744525 ] } },
{ "type": "Feature", "properties": { "BUSINESS NAME": "SPOTTERS AERIAL AG LLC", "OWNER/OPERATOR": "JOSHUA DIPIPPO", "EMAIL": "mackenzie@spottersaa.com", "PHONE": "605-630-1044", "CITY": "KILLDEER", "STATE": "ND", "CHIEF PILOT (RESPONSIBLE FOR ALL PILOTS)": "JOSHUA DIPIPPO", "ADDL PILOTS": "BRYCE MORGAN", "TYPE OF LICENSE": "UNMANNED", "orig_x": -102.7539105, "orig_y": 47.3719437 }, "geometry": { "type": "Point", "coordinates": [ -102.753513571571133, 47.372102625121066 ] } },
{ "type": "Feature", "properties": { "BUSINESS NAME": "SPRAGUES AERIAL SPRAYING INC", "OWNER/OPERATOR": "ROBERT SPRAGUE", "EMAIL": "robertsprague@daktel.com", "PHONE": "701-320-2890", "CITY": "COURTENAY", "STATE": "ND", "CHIEF PILOT (RESPONSIBLE FOR ALL PILOTS)": "ROBERT SPRAGUE", "ADDL PILOTS": "ETHAN SPRAGUE", "TYPE OF LICENSE": "MANNED", "orig_x": -98.5664877, "orig_y": 47.2222163 }, "geometry": { "type": "Point", "coordinates": [ -98.567376985469338, 47.221903152399875 ] } },
{ "type": "Feature", "properties": { "BUSINESS NAME": "SUNDRE SAND & GRAVEL", "OWNER/OPERATOR": "SHELDON HILL", "EMAIL": "sheldon@sundregravel.com", "PHONE": "701-720-2801", "CITY": "MINOT", "STATE": "ND", "CHIEF PILOT (RESPONSIBLE FOR ALL PILOTS)": "SHELDON HILL", "ADDL PILOTS": "NONE LISTED", "TYPE OF LICENSE": "UNMANNED", "orig_x": -101.296273, "orig_y": 48.23251 }, "geometry": { "type": "Point", "coordinates": [ -101.297164141708009, 48.23260932513665 ] } },
{ "type": "Feature", "properties": { "BUSINESS NAME": "TALL TOWERS AG SERVICE", "OWNER/OPERATOR": "TOBY MCPHERSON", "EMAIL": "office@talltowersaviation.com", "PHONE": "701-668-2302", "CITY": "PAGE", "STATE": "ND", "CHIEF PILOT (RESPONSIBLE FOR ALL PILOTS)": "TOBY MCPHERSON", "ADDL PILOTS": "MIKE SCHROEDER, JOHN NIENHUIS", "TYPE OF LICENSE": "MANNED", "orig_x": -97.5712038, "orig_y": 47.1597055 }, "geometry": { "type": "Point", "coordinates": [ -97.571552968323502, 47.160545069028871 ] } },
{ "type": "Feature", "properties": { "BUSINESS NAME": "TLB AIR LLP", "OWNER/OPERATOR": "RYAN ALME", "EMAIL": "ryanalme@msn.com", "PHONE": "701-360-7926", "CITY": "GRAFTON", "STATE": "ND", "CHIEF PILOT (RESPONSIBLE FOR ALL PILOTS)": "RYAN ALME", "ADDL PILOTS": "NONE LISTED", "TYPE OF LICENSE": "MANNED", "orig_x": -97.410634, "orig_y": 48.4122108 }, "geometry": { "type": "Point", "coordinates": [ -97.406363267749668, 48.40213455100178 ] } },
{ "type": "Feature", "properties": { "BUSINESS NAME": "VALKYRIE AG SERVICES", "OWNER/OPERATOR": "JONATHAN POWELL", "EMAIL": "jonpowell85@live.com", "PHONE": "701-640-7999", "CITY": "SCRANTON", "STATE": "ND", "CHIEF PILOT (RESPONSIBLE FOR ALL PILOTS)": "JONATHAN POWELL", "ADDL PILOTS": "NONE LISTED", "TYPE OF LICENSE": "UNMANNED", "orig_x": -103.1429501, "orig_y": 46.1480618 }, "geometry": { "type": "Point", "coordinates": [ -103.141495612527365, 46.147346535893817 ] } },
{ "type": "Feature", "properties": { "BUSINESS NAME": "VALLEY SPRAYERS INC", "OWNER/OPERATOR": "JAYSE WHARAM", "EMAIL": "jaysewharam@hotmail.com", "PHONE": "701-331-0818", "CITY": "PARK RIVER", "STATE": "ND", "CHIEF PILOT (RESPONSIBLE FOR ALL PILOTS)": "JAYSE WHARAM", "ADDL PILOTS": "TY SCHMITT", "TYPE OF LICENSE": "MANNED", "orig_x": -97.7411999, "orig_y": 48.3986043 }, "geometry": { "type": "Point", "coordinates": [ -97.740445770178454, 48.398694127550911 ] } },
{ "type": "Feature", "properties": { "BUSINESS NAME": "VECTOR DISEASE CNTL INTL", "OWNER/OPERATOR": "GARY SIMONTON", "EMAIL": "aerialdivision@vdci.net", "PHONE": "385-238-0093", "CITY": "LITTLE ROCK", "STATE": "AR", "CHIEF PILOT (RESPONSIBLE FOR ALL PILOTS)": "ROB ASLESEN", "ADDL PILOTS": "JON ASLESEN, CHANDLER LADNER", "TYPE OF LICENSE": "MANNED", "orig_x": -92.2896267, "orig_y": 34.7465071 }, "geometry": { "type": "Point", "coordinates": [ -92.288893350732764, 34.747699271157117 ] } },
{ "type": "Feature", "properties": { "BUSINESS NAME": "WALHALLA AG SERVICE LLC", "OWNER/OPERATOR": "DAVID CARIGNAN", "EMAIL": "walhallaagservice@utma.com", "PHONE": "701-549-3500", "CITY": "WALHALLA", "STATE": "ND", "CHIEF PILOT (RESPONSIBLE FOR ALL PILOTS)": "DAVID CARIGNAN", "ADDL PILOTS": "NONE LISTED", "TYPE OF LICENSE": "MANNED", "orig_x": -97.918148, "orig_y": 48.923328 }, "geometry": { "type": "Point", "coordinates": [ -97.932620249346144, 48.928211578831466 ] } },
{ "type": "Feature", "properties": { "BUSINESS NAME": "WALKERS LAWNCARE LLC", "OWNER/OPERATOR": "RYAN WALKER", "EMAIL": "walkerslawncare@hotmail.com", "PHONE": "218-779-2744", "CITY": "HILLSBORO", "STATE": "ND", "CHIEF PILOT (RESPONSIBLE FOR ALL PILOTS)": "RYAN WALKER", "ADDL PILOTS": "JORDAN AVISO, ELI KUEBER", "TYPE OF LICENSE": "UNMANNED", "orig_x": -97.0620308, "orig_y": 47.4038683 }, "geometry": { "type": "Point", "coordinates": [ -97.056233181423096, 47.413136428992352 ] } },
{ "type": "Feature", "properties": { "BUSINESS NAME": "WILD AIR SERVICE LLC", "OWNER/OPERATOR": "ISAAC WILDE", "EMAIL": "wildeairservice@gmail.com", "PHONE": "605-860-8692", "CITY": "VOLGA", "STATE": "SD", "CHIEF PILOT (RESPONSIBLE FOR ALL PILOTS)": "JORDAN WILLIAMS", "ADDL PILOTS": "NONE LISTED", "TYPE OF LICENSE": "MANNED", "orig_x": -96.926448, "orig_y": 44.32358 }, "geometry": { "type": "Point", "coordinates": [ -96.925657187031689, 44.322564083941707 ] } },
{ "type": "Feature", "properties": { "BUSINESS NAME": "WILD RICE AIR AG INC", "OWNER/OPERATOR": "RODNEY ERICKSON", "EMAIL": "r2inc@hotmail.com", "PHONE": "701-367-5243", "CITY": "RUTLAND", "STATE": "ND", "CHIEF PILOT (RESPONSIBLE FOR ALL PILOTS)": "RODNEY ERICKSON", "ADDL PILOTS": "NONE LISTED", "TYPE OF LICENSE": "MANNED", "orig_x": -97.508984, "orig_y": 46.053019 }, "geometry": { "type": "Point", "coordinates": [ -97.509132616827898, 46.05246406226621 ] } },
{ "type": "Feature", "properties": { "BUSINESS NAME": "WINFIELD UNITED", "OWNER/OPERATOR": "MATTHEW MITTAG", "EMAIL": "mmittag@landolakes.com", "PHONE": "701-970-9677", "CITY": "FARGO", "STATE": "ND", "CHIEF PILOT (RESPONSIBLE FOR ALL PILOTS)": "ALEXANDER CURLEE", "ADDL PILOTS": "DAKOTA WOLFE", "TYPE OF LICENSE": "UNMANNED", "orig_x": -96.789821, "orig_y": 46.877229 }, "geometry": { "type": "Point", "coordinates": [ -96.803849387366881, 46.872608623326748 ] } },
{ "type": "Feature", "properties": { "BUSINESS NAME": "WINFIELD UNITED", "OWNER/OPERATOR": "ALEXIS DICKSON", "EMAIL": "adickson@landolakes.com", "PHONE": "701-371-3684", "CITY": "GALESBURG", "STATE": "ND", "CHIEF PILOT (RESPONSIBLE FOR ALL PILOTS)": "ALEXIS DICKSON", "ADDL PILOTS": "TROY GULLEKSON", "TYPE OF LICENSE": "UNMANNED", "orig_x": -97.4064772, "orig_y": 47.2699845 }, "geometry": { "type": "Point", "coordinates": [ -97.406359683801654, 47.269257048449376 ] } }
]
}
