{
"type": "FeatureCollection",
"name": "ndac-directory-georeferenced",
"crs": { "type": "name", "properties": { "name": "urn:ogc:def:crs:OGC:1.3:CRS84" } },
"features": [
{ "type": "Feature", "properties": { "BUSINESS NAME": "(PENDING) LOFTON AVIATION INC", "OWNER/OPERATOR": "CHAD LOFTON", "EMAIL": "chadlofton@hotmail.com", "PHONE": "218-779-1678", "CITY": "GEORGETOWN", "STATE": "MN", "CHIEF PILOT (RESPONSIBLE FOR ALL PILOTS)": "CHAD LOFTON", "ADDL PILOTS": "NONE LISTED", "TYPE OF LICENSE": "MANNED" }, "geometry": { "type": "Point", "coordinates": [ -96.768054239596339, 47.035448039961857 ] } },
{ "type": "Feature", "properties": { "BUSINESS NAME": "(PENDING) SMITH, JOEL", "OWNER/OPERATOR": "DIVAN BEUKES", "EMAIL": "joel@ssgrains.com", "PHONE": "701-520-9688", "CITY": "WALHALLA", "STATE": "ND", "CHIEF PILOT (RESPONSIBLE FOR ALL PILOTS)": "DIVAN BEUKES", "ADDL PILOTS": "NONE LISTED", "TYPE OF LICENSE": "UNMANNED" }, "geometry": { "type": "Point", "coordinates": [ -97.905120790411502, 48.927029256887856 ] } },
{ "type": "Feature", "properties": { "BUSINESS NAME": "(PENDING) VOGEL, MICHAEL", "OWNER/OPERATOR": "MICHAEL VOGEL", "EMAIL": "mikevogel@hotmail.com", "PHONE": "701-320-0624", "CITY": "LAMOURE", "STATE": "ND", "CHIEF PILOT (RESPONSIBLE FOR ALL PILOTS)": "MICHAEL VOGEL", "ADDL PILOTS": "NONE LISTED", "TYPE OF LICENSE": "UNMANNED" }, "geometry": { "type": "Point", "coordinates": [ -98.317943712732173, 46.337432669743961 ] } },
{ "type": "Feature", "properties": { "BUSINESS NAME": "(PENDING) WEST CENTRAL AG-AIR INC", "OWNER/OPERATOR": "RYAN LUBBEN", "EMAIL": "wcagair@live.com", "PHONE": "218-770-0130", "CITY": "FERGUS FALLS", "STATE": "MN", "CHIEF PILOT (RESPONSIBLE FOR ALL PILOTS)": "RYAN LUBBEN", "ADDL PILOTS": "NONE LISTED", "TYPE OF LICENSE": "MANNED" }, "geometry": { "type": "Point", "coordinates": [ -96.043305636175234, 46.336249382928955 ] } },
{ "type": "Feature", "properties": { "BUSINESS NAME": "3RD GEN AVIATION LLC", "OWNER/OPERATOR": "BEN HALSTENSON", "EMAIL": "bhalstenson@3rdgenaviation.com", "PHONE": "701-739-5463", "CITY": "LISBON", "STATE": "ND", "CHIEF PILOT (RESPONSIBLE FOR ALL PILOTS)": "BEN HALSTENSON", "ADDL PILOTS": "NONE LISTED", "TYPE OF LICENSE": "MANNED" }, "geometry": { "type": "Point", "coordinates": [ -97.683421418257282, 46.393972805268447 ] } },
{ "type": "Feature", "properties": { "BUSINESS NAME": "4R FARM INSIGHTS LLC", "OWNER/OPERATOR": "MATTIE SCHMITT", "EMAIL": "mattie@4rfarminsights.com", "PHONE": "701-833-4316", "CITY": "TOWNER", "STATE": "ND", "CHIEF PILOT (RESPONSIBLE FOR ALL PILOTS)": "MATTIE SCHMITT", "ADDL PILOTS": "NONE LISTED", "TYPE OF LICENSE": "UNMANNED" }, "geometry": { "type": "Point", "coordinates": [ -100.386774131353292, 48.365697924977859 ] } },
{ "type": "Feature", "properties": { "BUSINESS NAME": "701 AERIAL APPLICATION LLC", "OWNER/OPERATOR": "TRISTEN UGLEM", "EMAIL": "ttuglem@gmail.com", "PHONE": "218-779-7382", "CITY": "NORTHWOOD", "STATE": "ND", "CHIEF PILOT (RESPONSIBLE FOR ALL PILOTS)": "TRISTEN UGLEM", "ADDL PILOTS": "NONE LISTED", "TYPE OF LICENSE": "UNMANNED" }, "geometry": { "type": "Point", "coordinates": [ -97.614176982429981, 47.786312962024084 ] } },
{ "type": "Feature", "properties": { "BUSINESS NAME": "AB SPRAY LLC", "OWNER/OPERATOR": "PARKER SKOLNESS", "EMAIL": "parker.skolness@gmail.com", "PHONE": "701-866-1977", "CITY": "GLYNDON", "STATE": "MN", "CHIEF PILOT (RESPONSIBLE FOR ALL PILOTS)": "PARKER SKOLNESS", "ADDL PILOTS": "NONE LISTED", "TYPE OF LICENSE": "UNMANNED" }, "geometry": { "type": "Point", "coordinates": [ -96.541771131793055, 46.923581412259459 ] } },
{ "type": "Feature", "properties": { "BUSINESS NAME": "AERIAL AG DRONE SERVICES", "OWNER/OPERATOR": "BRAYDEN BUSCHE", "EMAIL": "aerialagdrone@gmail.com", "PHONE": "701-660-9230", "CITY": "WYNDMERE", "STATE": "ND", "CHIEF PILOT (RESPONSIBLE FOR ALL PILOTS)": "BRAYDEN BUSCHE", "ADDL PILOTS": "NONE LISTED", "TYPE OF LICENSE": "UNMANNED" }, "geometry": { "type": "Point", "coordinates": [ -97.112038723682787, 46.19514179943819 ] } },
{ "type": "Feature", "properties": { "BUSINESS NAME": "AERIAL CROP CARE CO", "OWNER/OPERATOR": "PIERSON CHASE", "EMAIL": "aerialcrop@westriv.com", "PHONE": "701-878-4735", "CITY": "HEBRON", "STATE": "ND", "CHIEF PILOT (RESPONSIBLE FOR ALL PILOTS)": "PERSON CHASE", "ADDL PILOTS": "ROBERT WILSON, KEVIN HANSEN", "TYPE OF LICENSE": "MANNED" }, "geometry": { "type": "Point", "coordinates": [ -102.00229349864891, 46.885152091466836 ] } },
{ "type": "Feature", "properties": { "BUSINESS NAME": "AERIAL PLOT", "OWNER/OPERATOR": "TRAVIS BENSON", "EMAIL": "travisbenson.mn@gmail.com", "PHONE": "320-314-2075", "CITY": "WAYZATA", "STATE": "MN", "CHIEF PILOT (RESPONSIBLE FOR ALL PILOTS)": "TRAVIS BENSON", "ADDL PILOTS": "NONE LISTED", "TYPE OF LICENSE": "UNMANNED" }, "geometry": { "type": "Point", "coordinates": [ -93.506233405708784, 44.922067088588086 ] } },
{ "type": "Feature", "properties": { "BUSINESS NAME": "AERO SPRAYING SERVICE INC", "OWNER/OPERATOR": "RICK MARBURGER", "EMAIL": "rckmrbrgr@gmail.com", "PHONE": "701-570-2342", "CITY": "WILLISTON", "STATE": "ND", "CHIEF PILOT (RESPONSIBLE FOR ALL PILOTS)": "RICK MARBURGER", "ADDL PILOTS": "DUSTIN VILLINES, TANNER OVERLAND", "TYPE OF LICENSE": "MANNED" }, "geometry": { "type": "Point", "coordinates": [ -103.575023549640576, 48.176873155381557 ] } },
{ "type": "Feature", "properties": { "BUSINESS NAME": "AGRITECH AVIATION INC, MILLER SPRAYING", "OWNER/OPERATOR": "JEROLD MILLER", "EMAIL": "sales@agritechinc.com", "PHONE": "701-728-6614", "CITY": "DEERING", "STATE": "ND", "CHIEF PILOT (RESPONSIBLE FOR ALL PILOTS)": "JEROLD MILLER", "ADDL PILOTS": "STEVEN MAIRS", "TYPE OF LICENSE": "MANNED" }, "geometry": { "type": "Point", "coordinates": [ -101.101745709679093, 48.391521975419003 ] } },
{ "type": "Feature", "properties": { "BUSINESS NAME": "AGVANTAGE AERIAL LLC", "OWNER/OPERATOR": "LANCE MEIER", "EMAIL": "lance.e.meier@gmail.com", "PHONE": "701-367-4728", "CITY": "ZEELAND", "STATE": "ND", "CHIEF PILOT (RESPONSIBLE FOR ALL PILOTS)": "LANCE MEIER", "ADDL PILOTS": "CODY JOHNSON (PENDING)", "TYPE OF LICENSE": "UNMANNED" }, "geometry": { "type": "Point", "coordinates": [ -99.830295962412265, 45.966015336740192 ] } },
{ "type": "Feature", "properties": { "BUSINESS NAME": "AIR DAKOTA FLITE INC", "OWNER/OPERATOR": "CHARLES LINDQUIST", "EMAIL": "airdakota@ndsupernet.com", "PHONE": "701-567-2069", "CITY": "HETTINGER", "STATE": "ND", "CHIEF PILOT (RESPONSIBLE FOR ALL PILOTS)": "CHARLES LINDQUIST", "ADDL PILOTS": "MICHAEL LINDQUIST, JAMES LINDQUIST", "TYPE OF LICENSE": "MANNED" }, "geometry": { "type": "Point", "coordinates": [ -102.618917511914162, 46.026677277072579 ] } },
{ "type": "Feature", "properties": { "BUSINESS NAME": "AIR KRAFT SPRAYING INC", "OWNER/OPERATOR": "JAKE KRAFT", "EMAIL": "aksjake@gmail.com", "PHONE": "605-848-2624", "CITY": "TIMBER LAKE", "STATE": "SD", "CHIEF PILOT (RESPONSIBLE FOR ALL PILOTS)": "JAKE KRAFT", "ADDL PILOTS": "TYRONE KRAFT, TANNER KRAFT, ISAAC KRAFT", "TYPE OF LICENSE": "MANNED" }, "geometry": { "type": "Point", "coordinates": [ -101.066665947271929, 45.388982102592152 ] } },
{ "type": "Feature", "properties": { "BUSINESS NAME": "AIRBORNE CUSTOM SPRAYING", "OWNER/OPERATOR": "ROB ASLESEN", "EMAIL": "admin@airborncustomspraying.com", "PHONE": "218-456-2465", "CITY": "HALSTAD", "STATE": "MN", "CHIEF PILOT (RESPONSIBLE FOR ALL PILOTS)": "ROB ASLESEN", "ADDL PILOTS": "JON ASLESEN, MARLIN INGEBRETSON, CHAD HANSON, RAFAEL FLORES, JOSH MAIER, ZACH WOLF, JACOB RADERMACHER", "TYPE OF LICENSE": "MANNED" }, "geometry": { "type": "Point", "coordinates": [ -96.827459078825555, 47.407075662281805 ] } },
{ "type": "Feature", "properties": { "BUSINESS NAME": "AIRWORKS", "OWNER/OPERATOR": "ANDREW ASLESEN", "EMAIL": "andrew@airworksmn.com", "PHONE": "218-770-1248", "CITY": "SABIN", "STATE": "MN", "CHIEF PILOT (RESPONSIBLE FOR ALL PILOTS)": "ANDREW ASLESEN", "ADDL PILOTS": "DEAN LESMEISTER", "TYPE OF LICENSE": "MANNED" }, "geometry": { "type": "Point", "coordinates": [ -96.705066197043422, 46.851872159867888 ] } },
{ "type": "Feature", "properties": { "BUSINESS NAME": "ARTHUR AVIATION LLC", "OWNER/OPERATOR": "MATT HOVDENES", "EMAIL": "matt.hovdenes@arthurcompanies.com", "PHONE": "218-790-2765", "CITY": "ARTHUR", "STATE": "ND", "CHIEF PILOT (RESPONSIBLE FOR ALL PILOTS)": "MATT HOVDENES", "ADDL PILOTS": "ANDREW GERSWOLD", "TYPE OF LICENSE": "MANNED" }, "geometry": { "type": "Point", "coordinates": [ -97.258742479085399, 47.090203930352068 ] } },
{ "type": "Feature", "properties": { "BUSINESS NAME": "BAIR AVIATION INC", "OWNER/OPERATOR": "CRAIG BAIR", "EMAIL": "bairaviation@gmail.com", "PHONE": "402-366-4300", "CITY": "LAKE CITY", "STATE": "SD", "CHIEF PILOT (RESPONSIBLE FOR ALL PILOTS)": "CRAIG BAIR", "ADDL PILOTS": "NONE LISTED", "TYPE OF LICENSE": "MANNED" }, "geometry": { "type": "Point", "coordinates": [ -97.395563399983573, 45.767924916454717 ] } },
{ "type": "Feature", "properties": { "BUSINESS NAME": "BEAR CREEK FLYING SERVICE", "OWNER/OPERATOR": "TRAVIS MCPHERSON", "EMAIL": "bearcreekflying@drtel.net", "PHONE": "701-710-1220", "CITY": "OAKES", "STATE": "ND", "CHIEF PILOT (RESPONSIBLE FOR ALL PILOTS)": "TRAVIS MCPHERSON", "ADDL PILOTS": "NONE LISTED", "TYPE OF LICENSE": "MANNED" }, "geometry": { "type": "Point", "coordinates": [ -98.042801650613768, 46.164380282544123 ] } },
{ "type": "Feature", "properties": { "BUSINESS NAME": "BLUE EARTH FLYING SERVICE", "OWNER/OPERATOR": "LUKE STEIER", "EMAIL": "carly.steier@hotmail.com", "PHONE": "507-526-7264", "CITY": "BLUE EARTH", "STATE": "MN", "CHIEF PILOT (RESPONSIBLE FOR ALL PILOTS)": "LUKE STEIER", "ADDL PILOTS": "JACOB HUBER, NORBERT GREGORY, NATHAN TAFELMEYER", "TYPE OF LICENSE": "MANNED" }, "geometry": { "type": "Point", "coordinates": [ -94.156756422919912, 43.572524525394272 ] } },
{ "type": "Feature", "properties": { "BUSINESS NAME": "BLUE SKIES AG LLC", "OWNER/OPERATOR": "TYLER FJELDAHL", "EMAIL": "tyler.fjeldahl@gmail.com", "PHONE": "701-822-0854", "CITY": "PLAZA", "STATE": "ND", "CHIEF PILOT (RESPONSIBLE FOR ALL PILOTS)": "TYLER FJELDAHL", "ADDL PILOTS": "NONE LISTED", "TYPE OF LICENSE": "UNMANNED" }, "geometry": { "type": "Point", "coordinates": [ -101.982443045655913, 48.048452974650061 ] } },
{ "type": "Feature", "properties": { "BUSINESS NAME": "BOWERS AERIAL LLC", "OWNER/OPERATOR": "BLAKE BOWERS", "EMAIL": "bowersaerial@gmail.com", "PHONE": "701-818-7459", "CITY": "MOHALL", "STATE": "ND", "CHIEF PILOT (RESPONSIBLE FOR ALL PILOTS)": "BLAKE BOWERS", "ADDL PILOTS": "CHAD GRAVESEN, SANJIV BISHESAR", "TYPE OF LICENSE": "MANNED" }, "geometry": { "type": "Point", "coordinates": [ -101.476530434601912, 48.802460810347796 ] } },
{ "type": "Feature", "properties": { "BUSINESS NAME": "BREKKE AVIATION INC", "OWNER/OPERATOR": "JESS BREKKE", "EMAIL": "jess@brekkeaviation.com", "PHONE": "701-644-2618", "CITY": "EDMORE", "STATE": "ND", "CHIEF PILOT (RESPONSIBLE FOR ALL PILOTS)": "JESS BREKKE", "ADDL PILOTS": "CRISTIANO BARROS DA COSTA", "TYPE OF LICENSE": "MANNED" }, "geometry": { "type": "Point", "coordinates": [ -98.413065425350226, 48.413820799575667 ] } },
{ "type": "Feature", "properties": { "BUSINESS NAME": "BUCKSHOT SPRAYING SERVICE", "OWNER/OPERATOR": "CURTIS BUCKMAN", "EMAIL": "buckshotspraying@yahoo.com", "PHONE": "701-575-8477", "CITY": "BELFIELD", "STATE": "ND", "CHIEF PILOT (RESPONSIBLE FOR ALL PILOTS)": "CURTIS BUCKMAN", "ADDL PILOTS": "CINDY BUCKMAN", "TYPE OF LICENSE": "UNMANNED" }, "geometry": { "type": "Point", "coordinates": [ -103.243559477223542, 46.946422764920506 ] } },
{ "type": "Feature", "properties": { "BUSINESS NAME": "CAVALIER AIR SERVICE", "OWNER/OPERATOR": "JEREMY SENG", "EMAIL": "jeremycseng@gmail.com", "PHONE": "701-265-4466", "CITY": "CAVALIER", "STATE": "ND", "CHIEF PILOT (RESPONSIBLE FOR ALL PILOTS)": "JEREMY SENG", "ADDL PILOTS": "NONE LISTED", "TYPE OF LICENSE": "MANNED" }, "geometry": { "type": "Point", "coordinates": [ -97.659408968130066, 48.810149250188203 ] } },
{ "type": "Feature", "properties": { "BUSINESS NAME": "CLIFFORD FARMERS COOP ELEVATOR", "OWNER/OPERATOR": "STEVE BALDOCK", "EMAIL": "kody@cliffordfarmerscoop.com", "PHONE": "701-289-0018", "CITY": "CLIFFORD", "STATE": "ND", "CHIEF PILOT (RESPONSIBLE FOR ALL PILOTS)": "RYAN GROTH", "ADDL PILOTS": "NONE LISTED", "TYPE OF LICENSE": "MANNED" }, "geometry": { "type": "Point", "coordinates": [ -97.435920335844386, 47.343550080420229 ] } },
{ "type": "Feature", "properties": { "BUSINESS NAME": "CUSTOM CROP CARE LLC", "OWNER/OPERATOR": "DEREK MORTEN", "EMAIL": "derekmorten39@gmail.com", "PHONE": "218-779-6637", "CITY": "LARIMORE", "STATE": "ND", "CHIEF PILOT (RESPONSIBLE FOR ALL PILOTS)": "DEREK MORTEN", "ADDL PILOTS": "NONE LISTED", "TYPE OF LICENSE": "MANNED" }, "geometry": { "type": "Point", "coordinates": [ -97.641720504837139, 47.969239514416572 ] } },
{ "type": "Feature", "properties": { "BUSINESS NAME": "DAKOTA AG SERVICE INC", "OWNER/OPERATOR": "RYAN FURMAN", "EMAIL": "dasinc@venturecomm.net", "PHONE": "605-448-2264", "CITY": "BRITTON", "STATE": "SD", "CHIEF PILOT (RESPONSIBLE FOR ALL PILOTS)": "CRAIG BAIR", "ADDL PILOTS": "DARRIN PLUHAR", "TYPE OF LICENSE": "MANNED" }, "geometry": { "type": "Point", "coordinates": [ -97.699752939055898, 45.767906821046303 ] } },
{ "type": "Feature", "properties": { "BUSINESS NAME": "DAKOTA AIR SPRAY", "OWNER/OPERATOR": "PHILIP SOUKUP", "EMAIL": "psoukup@dakotaairspray.com", "PHONE": "701-550-0134", "CITY": "ROLLA", "STATE": "ND", "CHIEF PILOT (RESPONSIBLE FOR ALL PILOTS)": "ERIK KLINDT", "ADDL PILOTS": "ALEXANDER VIGER, PAUL DEAL", "TYPE OF LICENSE": "MANNED" }, "geometry": { "type": "Point", "coordinates": [ -99.580543203137267, 48.909319596883599 ] } },
{ "type": "Feature", "properties": { "BUSINESS NAME": "DAKOTA DRONE LLC", "OWNER/OPERATOR": "DANE MUELLER", "EMAIL": "dmueller1305@gmail.com", "PHONE": "701-789-1305", "CITY": "COOPERSTOWN", "STATE": "ND", "CHIEF PILOT (RESPONSIBLE FOR ALL PILOTS)": "DANE MUELLER", "ADDL PILOTS": "NONE LISTED", "TYPE OF LICENSE": "UNMANNED" }, "geometry": { "type": "Point", "coordinates": [ -98.178417195961714, 47.391104215496441 ] } },
{ "type": "Feature", "properties": { "BUSINESS NAME": "DAKOTA HELICOPTERS INC", "OWNER/OPERATOR": "SHAWN MORTEN", "EMAIL": "smorten@dakotahelicopters.com", "PHONE": "701-873-4100", "CITY": "BEULAH", "STATE": "ND", "CHIEF PILOT (RESPONSIBLE FOR ALL PILOTS)": "SHAWN MORTEN", "ADDL PILOTS": "NONE LISTED", "TYPE OF LICENSE": "MANNED" }, "geometry": { "type": "Point", "coordinates": [ -101.731988026096829, 47.230512416943249 ] } },
{ "type": "Feature", "properties": { "BUSINESS NAME": "DAN'S FLYING SERVICE INC", "OWNER/OPERATOR": "DANIEL GEIST", "EMAIL": "dansflyingservice@gmail.com", "PHONE": "218-281-1372", "CITY": "CROOKSTON", "STATE": "MN", "CHIEF PILOT (RESPONSIBLE FOR ALL PILOTS)": "DANIEL GEIST", "ADDL PILOTS": "TYLER NESS, ANDREAS GEIST", "TYPE OF LICENSE": "MANNED" }, "geometry": { "type": "Point", "coordinates": [ -96.588955057292026, 47.706935335172069 ] } },
{ "type": "Feature", "properties": { "BUSINESS NAME": "DEKALB AVIATION LLC", "OWNER/OPERATOR": "FLETCHER DEKALB", "EMAIL": "fdekalb@gmail.com", "PHONE": "509-322-6543", "CITY": "WILLISTON", "STATE": "ND", "CHIEF PILOT (RESPONSIBLE FOR ALL PILOTS)": "FLETCHER DEKALB", "ADDL PILOTS": "NONE LISTED", "TYPE OF LICENSE": "MANNED" }, "geometry": { "type": "Point", "coordinates": [ -103.640161407352466, 48.180895908960501 ] } },
{ "type": "Feature", "properties": { "BUSINESS NAME": "DETERDING AERIAL LLC", "OWNER/OPERATOR": "JIM DETERDING", "EMAIL": "deterdingaerial@yahoo.com", "PHONE": "580-532-4490", "CITY": "POND CREEK", "STATE": "OK", "CHIEF PILOT (RESPONSIBLE FOR ALL PILOTS)": "JACOB SEVERIN", "ADDL PILOTS": "DANIEL YODER", "TYPE OF LICENSE": "MANNED" }, "geometry": { "type": "Point", "coordinates": [ -97.748177739974579, 36.62084644989072 ] } },
{ "type": "Feature", "properties": { "BUSINESS NAME": "DONALDSON PRECISION SPRAYING LLC", "OWNER/OPERATOR": "ETHAN DONALDSON", "EMAIL": "hallockethan@gmail.com", "PHONE": "701-410-8049", "CITY": "MANVEL", "STATE": "ND", "CHIEF PILOT (RESPONSIBLE FOR ALL PILOTS)": "ETHAN DONALDSON", "ADDL PILOTS": "NONE LISTED", "TYPE OF LICENSE": "UNMANNED" }, "geometry": { "type": "Point", "coordinates": [ -97.176818785749177, 48.03193002299254 ] } },
{ "type": "Feature", "properties": { "BUSINESS NAME": "DRONE ZONE SPRAY SERVICE", "OWNER/OPERATOR": "MICHAEL VEER", "EMAIL": "mveer@gondtc.com", "PHONE": "701-381-9707", "CITY": "DEVILS LAKE", "STATE": "ND", "CHIEF PILOT (RESPONSIBLE FOR ALL PILOTS)": "MICHAEL VEER", "ADDL PILOTS": "NONE LISTED", "TYPE OF LICENSE": "UNMANNED" }, "geometry": { "type": "Point", "coordinates": [ -98.821718765111058, 48.145913913907307 ] } },
{ "type": "Feature", "properties": { "BUSINESS NAME": "EAGLE EYE DRONE SERVICES", "OWNER/OPERATOR": "SHANE MARTINSON", "EMAIL": "shanemartinson@hotmail.com", "PHONE": "701-399-6016", "CITY": "HARVEY", "STATE": "ND", "CHIEF PILOT (RESPONSIBLE FOR ALL PILOTS)": "SHANE MARTINSON", "ADDL PILOTS": "BREVON MARTINSON", "TYPE OF LICENSE": "UNMANNED" }, "geometry": { "type": "Point", "coordinates": [ -99.965270496262278, 47.835429599776845 ] } },
{ "type": "Feature", "properties": { "BUSINESS NAME": "ELEVATED AG SOLUTIONS LLC", "OWNER/OPERATOR": "SPENCER SCHWAB", "EMAIL": "bigssfarms@gmail.com", "PHONE": "701-680-7640", "CITY": "LISBON", "STATE": "ND", "CHIEF PILOT (RESPONSIBLE FOR ALL PILOTS)": "SPENCER SCHWAB", "ADDL PILOTS": "NONE LISTED", "TYPE OF LICENSE": "UNMANNED" }, "geometry": { "type": "Point", "coordinates": [ -97.691555041588444, 46.472490600688147 ] } },
{ "type": "Feature", "properties": { "BUSINESS NAME": "FIELD FLIGHT SERVICES LLC", "OWNER/OPERATOR": "JAMIE SEEDORF", "EMAIL": "jamieseedorf737@gmail.com", "PHONE": "701-498-0138", "CITY": "MANDAN", "STATE": "ND", "CHIEF PILOT (RESPONSIBLE FOR ALL PILOTS)": "JAMIE SEEDORF", "ADDL PILOTS": "NONE LISTED", "TYPE OF LICENSE": "UNMANNED" }, "geometry": { "type": "Point", "coordinates": [ -100.882708230930092, 46.795706367686513 ] } },
{ "type": "Feature", "properties": { "BUSINESS NAME": "FLY LOW AVIATION LLC", "OWNER/OPERATOR": "CALLY ARNDT", "EMAIL": "flylownd@gmail.com", "PHONE": "719-239-1558", "CITY": "ASHLEY", "STATE": "ND", "CHIEF PILOT (RESPONSIBLE FOR ALL PILOTS)": "TYSON LUKASAVIGE", "ADDL PILOTS": "TYLER CHAMBERLAIN, JASON HURT", "TYPE OF LICENSE": "MANNED" }, "geometry": { "type": "Point", "coordinates": [ -99.321088634110268, 46.000869343676534 ] } },
{ "type": "Feature", "properties": { "BUSINESS NAME": "FLYING G AVIATION INC", "OWNER/OPERATOR": "TROY GEORGESON", "EMAIL": "flyingg@polarcomm.com", "PHONE": "701-454-6588", "CITY": "DRAYTON", "STATE": "ND", "CHIEF PILOT (RESPONSIBLE FOR ALL PILOTS)": "TROY GEORGESON", "ADDL PILOTS": "NONE LISTED", "TYPE OF LICENSE": "MANNED" }, "geometry": { "type": "Point", "coordinates": [ -97.180465693793792, 48.585706986792395 ] } },
{ "type": "Feature", "properties": { "BUSINESS NAME": "FLYITON AG LLC", "OWNER/OPERATOR": "LYNN JOHNSON", "EMAIL": "ljohn1340@aol.com", "PHONE": "701-360-5966", "CITY": "GRAFTON", "STATE": "ND", "CHIEF PILOT (RESPONSIBLE FOR ALL PILOTS)": "LYNN JOHNSON", "ADDL PILOTS": "KYLE SVEEN, ROBERT JOHNSON", "TYPE OF LICENSE": "MANNED" }, "geometry": { "type": "Point", "coordinates": [ -97.362895166297847, 48.476868189889188 ] } },
{ "type": "Feature", "properties": { "BUSINESS NAME": "FOREST FLYING SERVICE", "OWNER/OPERATOR": "KEVIN FOREST", "EMAIL": "forestflying@yahoo.com", "PHONE": "701-305-0072", "CITY": "LANGDON", "STATE": "ND", "CHIEF PILOT (RESPONSIBLE FOR ALL PILOTS)": "KEVIN FOREST", "ADDL PILOTS": "DAVID HART, JESSE FETSCH", "TYPE OF LICENSE": "MANNED" }, "geometry": { "type": "Point", "coordinates": [ -98.405101327126076, 48.742236633186259 ] } },
{ "type": "Feature", "properties": { "BUSINESS NAME": "FROEMKE AERIAL SOLUTIONS", "OWNER/OPERATOR": "STEVEN FROEMKE", "EMAIL": "info@froemkeas.com", "PHONE": "701-680-0564", "CITY": "LISBON", "STATE": "ND", "CHIEF PILOT (RESPONSIBLE FOR ALL PILOTS)": "STEVEN FROEMKE", "ADDL PILOTS": "NONE LISTED", "TYPE OF LICENSE": "UNMANNED" }, "geometry": { "type": "Point", "coordinates": [ -97.632707285156414, 46.410079923296912 ] } },
{ "type": "Feature", "properties": { "BUSINESS NAME": "GASPER AIR SPRAY INC", "OWNER/OPERATOR": "MICHAEL GASPER", "EMAIL": "gasperairspray@gmail.com", "PHONE": "218-289-0076", "CITY": "CROOKSTON", "STATE": "MN", "CHIEF PILOT (RESPONSIBLE FOR ALL PILOTS)": "MICHAEL GASPER", "ADDL PILOTS": "BRADY DAVIS", "TYPE OF LICENSE": "MANNED" }, "geometry": { "type": "Point", "coordinates": [ -96.659040757327944, 47.845248020265238 ] } },
{ "type": "Feature", "properties": { "BUSINESS NAME": "GREAT PLAINS AERO INC", "OWNER/OPERATOR": "JULIUS BREKHUS", "EMAIL": "paklbrek@restel.com", "PHONE": "701-848-6116", "CITY": "TOLLEY", "STATE": "ND", "CHIEF PILOT (RESPONSIBLE FOR ALL PILOTS)": "JULIUS BREKHUS", "ADDL PILOTS": "DAKOTA PETERSEN, PAUL SOULEK, JOE BAKER, ", "TYPE OF LICENSE": "MANNED" }, "geometry": { "type": "Point", "coordinates": [ -101.825521646104434, 48.678858625284619 ] } },
{ "type": "Feature", "properties": { "BUSINESS NAME": "HANSEN AG AIR LLC", "OWNER/OPERATOR": "ROSS HANSEN", "EMAIL": "ross.p.hansen@icloud.com", "PHONE": "218-849-6300", "CITY": "DETROIT LAKES", "STATE": "MN", "CHIEF PILOT (RESPONSIBLE FOR ALL PILOTS)": "ROSS HANSEN", "ADDL PILOTS": "NONE LISTED", "TYPE OF LICENSE": "UNMANNED" }, "geometry": { "type": "Point", "coordinates": [ -95.820849596894249, 46.879675084821606 ] } },
{ "type": "Feature", "properties": { "BUSINESS NAME": "HART FLYING SERVICE", "OWNER/OPERATOR": "DAVID HART", "EMAIL": "tmmtrans@yahoo.com", "PHONE": "701-305-0458", "CITY": "LANGDON", "STATE": "ND", "CHIEF PILOT (RESPONSIBLE FOR ALL PILOTS)": "DAVID HART", "ADDL PILOTS": "NONE LISTED", "TYPE OF LICENSE": "MANNED" }, "geometry": { "type": "Point", "coordinates": [ -98.353564223266261, 48.803793096292935 ] } },
{ "type": "Feature", "properties": { "BUSINESS NAME": "HARVEST PARTNERS GENERAL PARTNERSHIP", "OWNER/OPERATOR": "JACOB CLAUSON", "EMAIL": "clausonja92@gmail.com", "PHONE": "701-680-5676", "CITY": "MAPLETON", "STATE": "ND", "CHIEF PILOT (RESPONSIBLE FOR ALL PILOTS)": "JACOB CLAUSON", "ADDL PILOTS": "NONE LISTED", "TYPE OF LICENSE": "UNMANNED" }, "geometry": { "type": "Point", "coordinates": [ -97.01558413262461, 46.838360649929982 ] } },
{ "type": "Feature", "properties": { "BUSINESS NAME": "HEUER AGRI DRONE SERVICES", "OWNER/OPERATOR": "ELEANOR HEUER", "EMAIL": "heueragridrone@outlook.com", "PHONE": "701-238-9046", "CITY": "LEONARD", "STATE": "ND", "CHIEF PILOT (RESPONSIBLE FOR ALL PILOTS)": "ELEANOR HEUER", "ADDL PILOTS": "MATT HEUER", "TYPE OF LICENSE": "UNMANNED" }, "geometry": { "type": "Point", "coordinates": [ -97.227724351064566, 46.654333253401745 ] } },
{ "type": "Feature", "properties": { "BUSINESS NAME": "HILLHEAD DRONE SERVICE LLC", "OWNER/OPERATOR": "THAD GRIMSRUD", "EMAIL": "thadgrimsrud@gmail.com", "PHONE": "605-695-5600", "CITY": "BROOKINGS", "STATE": "SD", "CHIEF PILOT (RESPONSIBLE FOR ALL PILOTS)": "THAD GRIMSRUD", "ADDL PILOTS": "NONE LISTED", "TYPE OF LICENSE": "UNMANNED" }, "geometry": { "type": "Point", "coordinates": [ -96.748814462507909, 44.282534784849304 ] } },
{ "type": "Feature", "properties": { "BUSINESS NAME": "HINKLE AIRSPRAY INC", "OWNER/OPERATOR": "JASON HINKLE", "EMAIL": "sarahinkle37@gmail.com", "PHONE": "701-265-8405", "CITY": "CAVALIER", "STATE": "ND", "CHIEF PILOT (RESPONSIBLE FOR ALL PILOTS)": "JASON HINKLE", "ADDL PILOTS": "JUSTIN HINKLE", "TYPE OF LICENSE": "MANNED" }, "geometry": { "type": "Point", "coordinates": [ -97.669046595229716, 48.854879140479476 ] } },
{ "type": "Feature", "properties": { "BUSINESS NAME": "HOISTAD FLYING SERVICE", "OWNER/OPERATOR": "RICK HOISTAD", "EMAIL": "ajstroh@gmail.com", "PHONE": "701-308-0169", "CITY": "GWINNER", "STATE": "ND", "CHIEF PILOT (RESPONSIBLE FOR ALL PILOTS)": "ANDREW STROH", "ADDL PILOTS": "NONE LISTED", "TYPE OF LICENSE": "MANNED" }, "geometry": { "type": "Point", "coordinates": [ -97.673946451450306, 46.287665657184398 ] } },
{ "type": "Feature", "properties": { "BUSINESS NAME": "HOWATT AIR INC", "OWNER/OPERATOR": "RYAN HOWATT", "EMAIL": "howattair@gmail.com", "PHONE": "701-370-9710", "CITY": "LANGDON", "STATE": "ND", "CHIEF PILOT (RESPONSIBLE FOR ALL PILOTS)": "RYAN HOWATT", "ADDL PILOTS": "NONE LISTED", "TYPE OF LICENSE": "MANNED" }, "geometry": { "type": "Point", "coordinates": [ -98.411387652380739, 48.813239954594792 ] } },
{ "type": "Feature", "properties": { "BUSINESS NAME": "HYDRO AG LLC", "OWNER/OPERATOR": "BRENT WANNER", "EMAIL": "wanner_4020@hotmail.com", "PHONE": "701-290-6663", "CITY": "DICKINSON", "STATE": "ND", "CHIEF PILOT (RESPONSIBLE FOR ALL PILOTS)": "BRENT WANNER", "ADDL PILOTS": "NONE LISTED", "TYPE OF LICENSE": "UNMANNED" }, "geometry": { "type": "Point", "coordinates": [ -102.827013988605131, 46.858044542511827 ] } },
{ "type": "Feature", "properties": { "BUSINESS NAME": "IDEAL SEED SOLUTIONS", "OWNER/OPERATOR": "JASON BROSSART", "EMAIL": "idealseedsolutions@gmail.com", "PHONE": "701-208-0424", "CITY": "RUGBY", "STATE": "ND", "CHIEF PILOT (RESPONSIBLE FOR ALL PILOTS)": "JASON BROSSART", "ADDL PILOTS": "NONE LISTED", "TYPE OF LICENSE": "UNMANNED" }, "geometry": { "type": "Point", "coordinates": [ -99.953139429615817, 48.295289627025639 ] } },
{ "type": "Feature", "properties": { "BUSINESS NAME": "KH AVIATION LLC", "OWNER/OPERATOR": "RYAN HOWATT", "EMAIL": "howattair@gmail.com", "PHONE": "701-370-9710", "CITY": "LANGDON", "STATE": "ND", "CHIEF PILOT (RESPONSIBLE FOR ALL PILOTS)": "RYAN HOWATT", "ADDL PILOTS": "DANIEL KUBAL", "TYPE OF LICENSE": "MANNED" }, "geometry": { "type": "Point", "coordinates": [ -98.349038454527019, 48.835065083953744 ] } },
{ "type": "Feature", "properties": { "BUSINESS NAME": "KNUTSON FLYING SERVICE INC", "OWNER/OPERATOR": "EUGENE KNUTSON", "EMAIL": "kflyer@nccray.com", "PHONE": "701-641-3276", "CITY": "TIOGA", "STATE": "ND", "CHIEF PILOT (RESPONSIBLE FOR ALL PILOTS)": "EUGENE KNUTSON", "ADDL PILOTS": "NONE LISTED", "TYPE OF LICENSE": "MANNED" }, "geometry": { "type": "Point", "coordinates": [ -102.945572797044434, 48.353697891710894 ] } },
{ "type": "Feature", "properties": { "BUSINESS NAME": "KRACKE SPRAYING SERVICE INC", "OWNER/OPERATOR": "CURTIS KRACKE", "EMAIL": "curtiskracke@gmail.com", "PHONE": "701-799-9008", "CITY": "FARGO", "STATE": "ND", "CHIEF PILOT (RESPONSIBLE FOR ALL PILOTS)": "CURTIS KRACKE", "ADDL PILOTS": "NONE LISTED", "TYPE OF LICENSE": "MANNED" }, "geometry": { "type": "Point", "coordinates": [ -96.754184316652584, 46.891954315223401 ] } },
{ "type": "Feature", "properties": { "BUSINESS NAME": "KROEPLIN AIR SERVICE LLC", "OWNER/OPERATOR": "DOUG KROEPLIN", "EMAIL": "makayla@kroeplinair.com", "PHONE": "605-852-2030", "CITY": "HIGHMORE", "STATE": "SD", "CHIEF PILOT (RESPONSIBLE FOR ALL PILOTS)": "LEVI STODDARD", "ADDL PILOTS": "MARK BECKER", "TYPE OF LICENSE": "MANNED" }, "geometry": { "type": "Point", "coordinates": [ -99.473367803904949, 44.541995403685675 ] } },
{ "type": "Feature", "properties": { "BUSINESS NAME": "KTI", "OWNER/OPERATOR": "JEFF KYLLO", "EMAIL": "kti@midconetwork.com", "PHONE": "218-779-2754", "CITY": "LARIMORE", "STATE": "ND", "CHIEF PILOT (RESPONSIBLE FOR ALL PILOTS)": "JEFF KYLLO", "ADDL PILOTS": "NONE LISTED", "TYPE OF LICENSE": "PRIVATE ONLY" }, "geometry": { "type": "Point", "coordinates": [ -97.639261766686218, 47.978824864921428 ] } },
{ "type": "Feature", "properties": { "BUSINESS NAME": "LAKEVIEW AVIATION INC", "OWNER/OPERATOR": "BRIAN WELKEN", "EMAIL": "brian@seenterprisesinc.com", "PHONE": "701-840-8784", "CITY": "SANBORN", "STATE": "ND", "CHIEF PILOT (RESPONSIBLE FOR ALL PILOTS)": "BRIAN WELKEN", "ADDL PILOTS": "NONE LISTED", "TYPE OF LICENSE": "MANNED" }, "geometry": { "type": "Point", "coordinates": [ -98.173844253724369, 46.939750203432695 ] } },
{ "type": "Feature", "properties": { "BUSINESS NAME": "LARSON HELICOPTERS LLC", "OWNER/OPERATOR": "MICHAEL LARSON", "EMAIL": "larheli@arvig.net", "PHONE": "218-346-5719", "CITY": "PERHAM", "STATE": "MN", "CHIEF PILOT (RESPONSIBLE FOR ALL PILOTS)": "MICHAEL LARSON", "ADDL PILOTS": "DYLAN LARSON", "TYPE OF LICENSE": "MANNED" }, "geometry": { "type": "Point", "coordinates": [ -95.594056008040141, 46.580290606174344 ] } },
{ "type": "Feature", "properties": { "BUSINESS NAME": "LIMKE, BRAD", "OWNER/OPERATOR": "BRAD LIMKE", "EMAIL": "brad.limke@gmail.com", "PHONE": "701-509-3953", "CITY": "CARPIO", "STATE": "ND", "CHIEF PILOT (RESPONSIBLE FOR ALL PILOTS)": "BRAD LIMKE", "ADDL PILOTS": "MICHAEL LIMKE", "TYPE OF LICENSE": "UNMANNED" }, "geometry": { "type": "Point", "coordinates": [ -101.678928261841662, 48.495059984137832 ] } },
{ "type": "Feature", "properties": { "BUSINESS NAME": "LITTLE HEART APPLICATORS LLC", "OWNER/OPERATOR": "LOGAN RIPPLE", "EMAIL": "caveman9112@gmail.com", "PHONE": "970-623-0299", "CITY": "SAINT ANTHONY", "STATE": "ND", "CHIEF PILOT (RESPONSIBLE FOR ALL PILOTS)": "LOGAN RIPPLE", "ADDL PILOTS": "NONE LISTED", "TYPE OF LICENSE": "UNMANNED" }, "geometry": { "type": "Point", "coordinates": [ -100.86811802859809, 46.640483730751583 ] } },
{ "type": "Feature", "properties": { "BUSINESS NAME": "LOCAL AG SOLUTIONS LLC", "OWNER/OPERATOR": "TARYN DOAN", "EMAIL": "tarynallmaras@gmail.com", "PHONE": "701-391-6130", "CITY": "FESSENDEN", "STATE": "ND", "CHIEF PILOT (RESPONSIBLE FOR ALL PILOTS)": "PATRICK DOAN", "ADDL PILOTS": "TARYN ALLMARAS", "TYPE OF LICENSE": "UNMANNED" }, "geometry": { "type": "Point", "coordinates": [ -99.602222803728694, 47.720968698254602 ] } },
{ "type": "Feature", "properties": { "BUSINESS NAME": "LT ENTERPRISES INC", "OWNER/OPERATOR": "LUKE TAYLOR", "EMAIL": "luke@ltenterprisesnd.com", "PHONE": "701-570-2646", "CITY": "WATFORD CITY", "STATE": "ND", "CHIEF PILOT (RESPONSIBLE FOR ALL PILOTS)": "LUKE TAYLOR", "ADDL PILOTS": "JONATHAN HAYS, ADAM TAYLOR, RICK FOSS, JEREMY RENKEN", "TYPE OF LICENSE": "MANNED" }, "geometry": { "type": "Point", "coordinates": [ -103.259317117617968, 47.823473859044874 ] } },
{ "type": "Feature", "properties": { "BUSINESS NAME": "LYTLE DRONE APPLICATIONS LLC", "OWNER/OPERATOR": "TIM LYTLE", "EMAIL": "tdblytle@midrivers.com", "PHONE": "406-855-6097", "CITY": "GLENDIVE", "STATE": "MT", "CHIEF PILOT (RESPONSIBLE FOR ALL PILOTS)": "TIM LYTLE", "ADDL PILOTS": "NONE LISTED", "TYPE OF LICENSE": "UNMANNED" }, "geometry": { "type": "Point", "coordinates": [ -104.699015666159696, 47.161428479670867 ] } },
{ "type": "Feature", "properties": { "BUSINESS NAME": "MASTER OF NONE LLC", "OWNER/OPERATOR": "SHAWN STEINBERGER", "EMAIL": "shawn@masterofnonellc.com", "PHONE": "701-580-5664", "CITY": "WILLISTON", "STATE": "ND", "CHIEF PILOT (RESPONSIBLE FOR ALL PILOTS)": "SHAWN STEINBERGER", "ADDL PILOTS": "NOAH FARMER, DILLON FARMER", "TYPE OF LICENSE": "UNMANNED" }, "geometry": { "type": "Point", "coordinates": [ -103.602638581808165, 48.154630784072957 ] } },
{ "type": "Feature", "properties": { "BUSINESS NAME": "MATEJCEK INC", "OWNER/OPERATOR": "KAMRON MATEJCEK", "EMAIL": "kamron.matejcek@gmail.com", "PHONE": "701-270-9921BROCKET", "CITY": "BROCKET", "STATE": "ND", "CHIEF PILOT (RESPONSIBLE FOR ALL PILOTS)": "KAMRON MATEJCEK", "ADDL PILOTS": "NONE LISTED", "TYPE OF LICENSE": "UNMANNED" }, "geometry": { "type": "Point", "coordinates": [ -98.373983533363017, 48.232459231962984 ] } },
{ "type": "Feature", "properties": { "BUSINESS NAME": "MATTERN SPRAY SERVICE", "OWNER/OPERATOR": "RODNEY MATTERN", "EMAIL": "matternspray@bektel.com", "PHONE": "701-321-0767", "CITY": "NAPOLEON", "STATE": "ND", "CHIEF PILOT (RESPONSIBLE FOR ALL PILOTS)": "RODNEY MATTERN", "ADDL PILOTS": "BRIAN SPEAS", "TYPE OF LICENSE": "MANNED" }, "geometry": { "type": "Point", "coordinates": [ -99.765734747774047, 46.511120860345713 ] } },
{ "type": "Feature", "properties": { "BUSINESS NAME": "MEDINA FLYING SERVICE", "OWNER/OPERATOR": "BRIAN RAU", "EMAIL": "medinaflying@aol.com", "PHONE": "701-320-9505", "CITY": "MEDINA", "STATE": "ND", "CHIEF PILOT (RESPONSIBLE FOR ALL PILOTS)": "BRIAN RAU", "ADDL PILOTS": "NONE LISTED", "TYPE OF LICENSE": "MANNED" }, "geometry": { "type": "Point", "coordinates": [ -99.246376399821315, 46.886230254057182 ] } },
{ "type": "Feature", "properties": { "BUSINESS NAME": "MEYER DRONE SERVICES LLC", "OWNER/OPERATOR": "SAMUEL MEYER", "EMAIL": "samuel.meyer02@gmail.com", "PHONE": "701-609-6788", "CITY": "POLLOCK", "STATE": "SD", "CHIEF PILOT (RESPONSIBLE FOR ALL PILOTS)": "SAMUEL MEYER", "ADDL PILOTS": "NONE LISTED", "TYPE OF LICENSE": "UNMANNED" }, "geometry": { "type": "Point", "coordinates": [ -100.309504036689631, 45.920656541336669 ] } },
{ "type": "Feature", "properties": { "BUSINESS NAME": "MIDWEST CUSTOM AG LLC", "OWNER/OPERATOR": "DEREK WUNDERLICH", "EMAIL": "derek@midwestcustomag.com", "PHONE": "701-630-4713", "CITY": "WHEATLAND", "STATE": "ND", "CHIEF PILOT (RESPONSIBLE FOR ALL PILOTS)": "DEREK WUNDERLICH", "ADDL PILOTS": "NONE LISTED", "TYPE OF LICENSE": "UNMANNED" }, "geometry": { "type": "Point", "coordinates": [ -97.329188755788678, 46.837838737712396 ] } },
{ "type": "Feature", "properties": { "BUSINESS NAME": "MIDWEST DRONE APPLICATORS LLC", "OWNER/OPERATOR": "COLE STOCK", "EMAIL": "midwestdrone24@gmail.com", "PHONE": "701-321-1688", "CITY": "WISHEK", "STATE": "ND", "CHIEF PILOT (RESPONSIBLE FOR ALL PILOTS)": "COLE STOCK", "ADDL PILOTS": "ZACHARY FISCHER", "TYPE OF LICENSE": "UNMANNED" }, "geometry": { "type": "Point", "coordinates": [ -99.582629239938072, 46.223682081923656 ] } },
{ "type": "Feature", "properties": { "BUSINESS NAME": "MIDWEST SKYDRONE SERVICES LLC", "OWNER/OPERATOR": "RYAN BUMANN", "EMAIL": "ryanbumann@hotmail.com", "PHONE": "952-607-7620", "CITY": "PRIOR LAKE", "STATE": "MN", "CHIEF PILOT (RESPONSIBLE FOR ALL PILOTS)": "RYAN BUMANN", "ADDL PILOTS": "NONE LISTED", "TYPE OF LICENSE": "UNMANNED" }, "geometry": { "type": "Point", "coordinates": [ -93.450735821279352, 44.707326732895076 ] } },
{ "type": "Feature", "properties": { "BUSINESS NAME": "MILLER SPRAYING", "OWNER/OPERATOR": "JEROLD MILLER", "EMAIL": "sales@agritechinc.com", "PHONE": "701-833-5363", "CITY": "DEERING", "STATE": "ND", "CHIEF PILOT (RESPONSIBLE FOR ALL PILOTS)": "JEROLD MILLER", "ADDL PILOTS": "STEVEN MAIRS", "TYPE OF LICENSE": "MANNED" }, "geometry": { "type": "Point", "coordinates": [ -101.011746346660814, 48.330483568203974 ] } },
{ "type": "Feature", "properties": { "BUSINESS NAME": "MILNOR AG AIR INC", "OWNER/OPERATOR": "MARK GAINOR", "EMAIL": "markgainor@icloud.com", "PHONE": "701-680-1001", "CITY": "MILNOR", "STATE": "ND", "CHIEF PILOT (RESPONSIBLE FOR ALL PILOTS)": "MARK GAINOR", "ADDL PILOTS": "NONE LISTED", "TYPE OF LICENSE": "MANNED" }, "geometry": { "type": "Point", "coordinates": [ -97.404135205287631, 46.250211718658079 ] } },
{ "type": "Feature", "properties": { "BUSINESS NAME": "MINNKOTA AERIAL", "OWNER/OPERATOR": "ANDREW STEINER", "EMAIL": "andrew@minnkotaaerial.com", "PHONE": "320-288-6107", "CITY": "HANCOCK", "STATE": "MN", "CHIEF PILOT (RESPONSIBLE FOR ALL PILOTS)": "ANDREW STEINER", "ADDL PILOTS": "NONE LISTED", "TYPE OF LICENSE": "UNMANNED" }, "geometry": { "type": "Point", "coordinates": [ -95.84476062652989, 45.467700013467727 ] } },
{ "type": "Feature", "properties": { "BUSINESS NAME": "MORTEN AERO AERVICE", "OWNER/OPERATOR": "JESSE MORTEN", "EMAIL": "jessemorten@hotmail.com", "PHONE": "218-779-4244", "CITY": "LARIMORE", "STATE": "ND", "CHIEF PILOT (RESPONSIBLE FOR ALL PILOTS)": "JESSE MORTEN", "ADDL PILOTS": "DEREK MORTEN, RICHARD GOETZ, MATTHEW SCHANILEC", "TYPE OF LICENSE": "MANNED" }, "geometry": { "type": "Point", "coordinates": [ -97.643829312972201, 47.968341846945975 ] } },
{ "type": "Feature", "properties": { "BUSINESS NAME": "NATURAL NORTH LLC", "OWNER/OPERATOR": "KEVIN BEHRENS", "EMAIL": "natural.northmn@gmail.com", "PHONE": "218-297-0110", "CITY": "ALEXANDRIA", "STATE": "MN", "CHIEF PILOT (RESPONSIBLE FOR ALL PILOTS)": "KEVIN BEHRENS", "ADDL PILOTS": "NONE LISTED", "TYPE OF LICENSE": "UNMANNED" }, "geometry": { "type": "Point", "coordinates": [ -95.403707973811848, 45.904985500208213 ] } },
{ "type": "Feature", "properties": { "BUSINESS NAME": "NE AERIAL DRONE SPRAYING LLC", "OWNER/OPERATOR": "ADAM OLSON", "EMAIL": "neaerialdronesprayingllc@gmail.com", "PHONE": "701-331-2268", "CITY": "EDINBURG", "STATE": "ND", "CHIEF PILOT (RESPONSIBLE FOR ALL PILOTS)": "ADAM OLSON", "ADDL PILOTS": "NONE LISTED", "TYPE OF LICENSE": "UNMANNED" }, "geometry": { "type": "Point", "coordinates": [ -97.84115925186974, 48.569643584603689 ] } },
{ "type": "Feature", "properties": { "BUSINESS NAME": "NODAK DRONES", "OWNER/OPERATOR": "MASON WEDE", "EMAIL": "nodakdrones@gmail.com", "PHONE": "701-650-8536", "CITY": "CARRINGTON", "STATE": "ND", "CHIEF PILOT (RESPONSIBLE FOR ALL PILOTS)": "MASON WEDE", "ADDL PILOTS": "ALEXANDER MENKE, GREGORY GRENZ", "TYPE OF LICENSE": "UNMANNED" }, "geometry": { "type": "Point", "coordinates": [ -99.089668944974861, 47.480554969471982 ] } },
{ "type": "Feature", "properties": { "BUSINESS NAME": "NORTH VALLEY AIRCRAFT INC", "OWNER/OPERATOR": "JARROD LINDEMANN", "EMAIL": "andrea@northvalleyaircraft.com", "PHONE": "701-845-2100", "CITY": "VALLEY CITY", "STATE": "ND", "CHIEF PILOT (RESPONSIBLE FOR ALL PILOTS)": "JARROD LINDEMANN", "ADDL PILOTS": "PAUL LINDEMANN", "TYPE OF LICENSE": "MANNED" }, "geometry": { "type": "Point", "coordinates": [ -98.033607094319493, 46.992610732868044 ] } },
{ "type": "Feature", "properties": { "BUSINESS NAME": "NORTHERN EXPANSE AERIAL SOLUTIONS", "OWNER/OPERATOR": "SCOTT ROBERTSON", "EMAIL": "northernexpanseaerial@gmail.com", "PHONE": "701-228-4205", "CITY": "BOTTINEAU", "STATE": "ND", "CHIEF PILOT (RESPONSIBLE FOR ALL PILOTS)": "SCOTT ROBERTSON", "ADDL PILOTS": "NONE LISTED", "TYPE OF LICENSE": "UNMANNED" }, "geometry": { "type": "Point", "coordinates": [ -100.430375764636992, 48.799343728418933 ] } },
{ "type": "Feature", "properties": { "BUSINESS NAME": "NORTHLAND AERIAL AG LLC", "OWNER/OPERATOR": "DOMINIC CARLSON", "EMAIL": "dominic.carlson33@gmail.com", "PHONE": "701-830-2458", "CITY": "EDGELEY", "STATE": "ND", "CHIEF PILOT (RESPONSIBLE FOR ALL PILOTS)": "DOMINIC CARLSON", "ADDL PILOTS": "NONE LISTED", "TYPE OF LICENSE": "UNMANNED" }, "geometry": { "type": "Point", "coordinates": [ -98.766097665188525, 46.420598407470379 ] } },
{ "type": "Feature", "properties": { "BUSINESS NAME": "OLSEM AERIAL APPLICATION SVC", "OWNER/OPERATOR": "BENJAMIN OLSEM", "EMAIL": "oaasllc@gmail.com", "PHONE": "507-360-1281", "CITY": "WESTBROOK", "STATE": "MN", "CHIEF PILOT (RESPONSIBLE FOR ALL PILOTS)": "BENJAMIN OLSEM", "ADDL PILOTS": "NONE LISTED", "TYPE OF LICENSE": "MANNED" }, "geometry": { "type": "Point", "coordinates": [ -95.43226916638902, 44.027450268589178 ] } },
{ "type": "Feature", "properties": { "BUSINESS NAME": "PETERSON FARMS SEED", "OWNER/OPERATOR": "BRANDON CHAPPEL", "EMAIL": "brandon.chappel@peterson.ag", "PHONE": "701-793-9369", "CITY": "HARWOOD", "STATE": "ND", "CHIEF PILOT (RESPONSIBLE FOR ALL PILOTS)": "BRANDON CHAPPEL", "ADDL PILOTS": "NONE LISTED", "TYPE OF LICENSE": "UNMANNED" }, "geometry": { "type": "Point", "coordinates": [ -96.929262816832733, 46.972523186064144 ] } },
{ "type": "Feature", "properties": { "BUSINESS NAME": "PLU'S FLYING SERVICE", "OWNER/OPERATOR": "DARRIN PLUHAR", "EMAIL": "pluflyinc@mcn.net", "PHONE": "406-775-6640", "CITY": "EKALAKA", "STATE": "MT", "CHIEF PILOT (RESPONSIBLE FOR ALL PILOTS)": "DARRIN PLUHAR", "ADDL PILOTS": "NONE LISTED", "TYPE OF LICENSE": "MANNED" }, "geometry": { "type": "Point", "coordinates": [ -104.52729221525631, 45.881833480124811 ] } },
{ "type": "Feature", "properties": { "BUSINESS NAME": "PREMIER AG PRODUCTS LLC", "OWNER/OPERATOR": "MATT JORISSEN", "EMAIL": "matt.jorissen1@gmail.com", "PHONE": "701-840-8540", "CITY": "ROGERS", "STATE": "ND", "CHIEF PILOT (RESPONSIBLE FOR ALL PILOTS)": "MATT JORISSEN", "ADDL PILOTS": "JOSHUA BROUSE", "TYPE OF LICENSE": "UNMANNED" }, "geometry": { "type": "Point", "coordinates": [ -98.205343200627354, 47.047562908617749 ] } },
{ "type": "Feature", "properties": { "BUSINESS NAME": "PRO AG SOLUTIONS LLC", "OWNER/OPERATOR": "CORY PALM", "EMAIL": "proagsolutionsnd@gmail.com", "PHONE": "701-516-4660", "CITY": "BISMARCK", "STATE": "ND", "CHIEF PILOT (RESPONSIBLE FOR ALL PILOTS)": "CORY PALM", "ADDL PILOTS": "NICOLE DOHENY, KOLTEN OHNELL, JAMISON MUTSCHLER", "TYPE OF LICENSE": "UNMANNED" }, "geometry": { "type": "Point", "coordinates": [ -100.805572506516839, 46.798468883719629 ] } },
{ "type": "Feature", "properties": { "BUSINESS NAME": "ROBERTS AG AIR", "OWNER/OPERATOR": "BLANE ROBERT", "EMAIL": "agair@drtel.net", "PHONE": "701-320-4189", "CITY": "LAMOURE", "STATE": "ND", "CHIEF PILOT (RESPONSIBLE FOR ALL PILOTS)": "BLANE ROBERT", "ADDL PILOTS": "NONE LISTED", "TYPE OF LICENSE": "MANNED" }, "geometry": { "type": "Point", "coordinates": [ -98.298917441937931, 46.321403102168311 ] } },
{ "type": "Feature", "properties": { "BUSINESS NAME": "RUBBERT AERIAL INC", "OWNER/OPERATOR": "CHRIS ZIMMER", "EMAIL": "zimmer_8@hotmail.com", "PHONE": "701-272-6322", "CITY": "UPHAM", "STATE": "ND", "CHIEF PILOT (RESPONSIBLE FOR ALL PILOTS)": "CHRIS ZIMMER", "ADDL PILOTS": "JAN RUBBERT, JORDAN LOEWEN, BRADLEY BERENTSON", "TYPE OF LICENSE": "MANNED" }, "geometry": { "type": "Point", "coordinates": [ -100.71396758446852, 48.520135134875005 ] } },
{ "type": "Feature", "properties": { "BUSINESS NAME": "RYANS AERIAL SERVICES LLC", "OWNER/OPERATOR": "RYAN STEPHAN", "EMAIL": "rasllc2010@gmail.com", "PHONE": "701-263-5580", "CITY": "LANSFORD", "STATE": "ND", "CHIEF PILOT (RESPONSIBLE FOR ALL PILOTS)": "RYAN STEPHAN", "ADDL PILOTS": "NONE LISTED", "TYPE OF LICENSE": "UNMANNED" }, "geometry": { "type": "Point", "coordinates": [ -101.39465121162695, 48.690161591523285 ] } },
{ "type": "Feature", "properties": { "BUSINESS NAME": "SCHNEIDER AERIAL", "OWNER/OPERATOR": "STEVE SCHNEIDER", "EMAIL": "schneideraerial@gondtc.com", "PHONE": "701-208-1630", "CITY": "RUGBY", "STATE": "ND", "CHIEF PILOT (RESPONSIBLE FOR ALL PILOTS)": "STEVE SCHNEIDER", "ADDL PILOTS": "RODNEY ERICKSON, JADEN SCHNEIDER, KAELIN SCHNEIDER", "TYPE OF LICENSE": "MANNED" }, "geometry": { "type": "Point", "coordinates": [ -99.981643281602345, 48.371584035967821 ] } },
{ "type": "Feature", "properties": { "BUSINESS NAME": "SECKERSON AERIAL SPRAYING", "OWNER/OPERATOR": "COREY SECKERSON", "EMAIL": "cloudcover72@gmail.com", "PHONE": "701-269-2992", "CITY": "JAMESTOWN", "STATE": "ND", "CHIEF PILOT (RESPONSIBLE FOR ALL PILOTS)": "COREY SECKERSON", "ADDL PILOTS": "NONE LISTED", "TYPE OF LICENSE": "MANNED" }, "geometry": { "type": "Point", "coordinates": [ -98.702951039580171, 46.9316088557391 ] } },
{ "type": "Feature", "properties": { "BUSINESS NAME": "SKI AG AVIATION LLC", "OWNER/OPERATOR": "STEVE IGLEHART", "EMAIL": "cessna172_9@hotmail.com", "PHONE": "701-337-6546", "CITY": "BISMARCK", "STATE": "ND", "CHIEF PILOT (RESPONSIBLE FOR ALL PILOTS)": "STEVE IGLEHART", "ADDL PILOTS": "BEN GOVEN", "TYPE OF LICENSE": "MANNED" }, "geometry": { "type": "Point", "coordinates": [ -100.779512788040392, 46.815852216369322 ] } },
{ "type": "Feature", "properties": { "BUSINESS NAME": "SKY TRACTOR", "OWNER/OPERATOR": "TRAVIS AMB", "EMAIL": "travis.amb113@gmail.com", "PHONE": "701-361-5695", "CITY": "HILLSBORO", "STATE": "ND", "CHIEF PILOT (RESPONSIBLE FOR ALL PILOTS)": "TRAVIS AMB", "ADDL PILOTS": "NONE LISTED", "TYPE OF LICENSE": "MANNED" }, "geometry": { "type": "Point", "coordinates": [ -97.093488294293039, 47.410502617750801 ] } },
{ "type": "Feature", "properties": { "BUSINESS NAME": "SKYTECH AG LLC", "OWNER/OPERATOR": "KYLE KRUEGER", "EMAIL": "kyle@skytechag.com", "PHONE": "701-240-3451", "CITY": "SAWYER", "STATE": "ND", "CHIEF PILOT (RESPONSIBLE FOR ALL PILOTS)": "KYLE KRUEGER", "ADDL PILOTS": "NONE LISTED", "TYPE OF LICENSE": "UNMANNED" }, "geometry": { "type": "Point", "coordinates": [ -101.07878704003096, 48.132815245028603 ] } },
{ "type": "Feature", "properties": { "BUSINESS NAME": "SOUTHWEST AERIAL LLC", "OWNER/OPERATOR": "DAN SWANSON", "EMAIL": "swan10@ndsupernet.com", "PHONE": "701-523-4845", "CITY": "BOWMAN", "STATE": "ND", "CHIEF PILOT (RESPONSIBLE FOR ALL PILOTS)": "STEVE IGLEHART", "ADDL PILOTS": "COLT RASMUSSEN", "TYPE OF LICENSE": "MANNED" }, "geometry": { "type": "Point", "coordinates": [ -103.372595907904952, 46.17999876709019 ] } },
{ "type": "Feature", "properties": { "BUSINESS NAME": "SPOTTERS AERIAL AG LLC", "OWNER/OPERATOR": "JOSHUA DIPIPPO", "EMAIL": "mackenzie@spottersaa.com", "PHONE": "605-630-1044", "CITY": "KILLDEER", "STATE": "ND", "CHIEF PILOT (RESPONSIBLE FOR ALL PILOTS)": "JOSHUA DIPIPPO", "ADDL PILOTS": "BRYCE MORGAN", "TYPE OF LICENSE": "UNMANNED" }, "geometry": { "type": "Point", "coordinates": [ -102.807007520457248, 47.353126768552166 ] } },
{ "type": "Feature", "properties": { "BUSINESS NAME": "SPRAGUES AERIAL SPRAYING INC", "OWNER/OPERATOR": "ROBERT SPRAGUE", "EMAIL": "robertsprague@daktel.com", "PHONE": "701-320-2890", "CITY": "COURTENAY", "STATE": "ND", "CHIEF PILOT (RESPONSIBLE FOR ALL PILOTS)": "ROBERT SPRAGUE", "ADDL PILOTS": "ETHAN SPRAGUE", "TYPE OF LICENSE": "MANNED" }, "geometry": { "type": "Point", "coordinates": [ -98.585254272467083, 47.267746446629836 ] } },
{ "type": "Feature", "properties": { "BUSINESS NAME": "SUNDRE SAND & GRAVEL", "OWNER/OPERATOR": "SHELDON HILL", "EMAIL": "sheldon@sundregravel.com", "PHONE": "701-720-2801", "CITY": "MINOT", "STATE": "ND", "CHIEF PILOT (RESPONSIBLE FOR ALL PILOTS)": "SHELDON HILL", "ADDL PILOTS": "NONE LISTED", "TYPE OF LICENSE": "UNMANNED" }, "geometry": { "type": "Point", "coordinates": [ -101.303291433842844, 48.237416191352274 ] } },
{ "type": "Feature", "properties": { "BUSINESS NAME": "TALL TOWERS AG SERVICE", "OWNER/OPERATOR": "TOBY MCPHERSON", "EMAIL": "office@talltowersaviation.com", "PHONE": "701-668-2302", "CITY": "PAGE", "STATE": "ND", "CHIEF PILOT (RESPONSIBLE FOR ALL PILOTS)": "TOBY MCPHERSON", "ADDL PILOTS": "MIKE SCHROEDER, JOHN NIENHUIS", "TYPE OF LICENSE": "MANNED" }, "geometry": { "type": "Point", "coordinates": [ -97.555175332768769, 47.163714606000013 ] } },
{ "type": "Feature", "properties": { "BUSINESS NAME": "TLB AIR LLP", "OWNER/OPERATOR": "RYAN ALME", "EMAIL": "ryanalme@msn.com", "PHONE": "701-360-7926", "CITY": "GRAFTON", "STATE": "ND", "CHIEF PILOT (RESPONSIBLE FOR ALL PILOTS)": "RYAN ALME", "ADDL PILOTS": "NONE LISTED", "TYPE OF LICENSE": "MANNED" }, "geometry": { "type": "Point", "coordinates": [ -97.419761062011219, 48.379967581108296 ] } },
{ "type": "Feature", "properties": { "BUSINESS NAME": "VALKYRIE AG SERVICES", "OWNER/OPERATOR": "JONATHAN POWELL", "EMAIL": "jonpowell85@live.com", "PHONE": "701-640-7999", "CITY": "SCRANTON", "STATE": "ND", "CHIEF PILOT (RESPONSIBLE FOR ALL PILOTS)": "JONATHAN POWELL", "ADDL PILOTS": "NONE LISTED", "TYPE OF LICENSE": "UNMANNED" }, "geometry": { "type": "Point", "coordinates": [ -103.169382925999074, 46.222022728897876 ] } },
{ "type": "Feature", "properties": { "BUSINESS NAME": "VALLEY SPRAYERS INC", "OWNER/OPERATOR": "JAYSE WHARAM", "EMAIL": "jaysewharam@hotmail.com", "PHONE": "701-331-0818", "CITY": "PARK RIVER", "STATE": "ND", "CHIEF PILOT (RESPONSIBLE FOR ALL PILOTS)": "JAYSE WHARAM", "ADDL PILOTS": "TY SCHMITT", "TYPE OF LICENSE": "MANNED" }, "geometry": { "type": "Point", "coordinates": [ -97.797253136784178, 48.356869482340194 ] } },
{ "type": "Feature", "properties": { "BUSINESS NAME": "VECTOR DISEASE CNTL INTL", "OWNER/OPERATOR": "GARY SIMONTON", "EMAIL": "aerialdivision@vdci.net", "PHONE": "385-238-0093", "CITY": "LITTLE ROCK", "STATE": "AR", "CHIEF PILOT (RESPONSIBLE FOR ALL PILOTS)": "ROB ASLESEN", "ADDL PILOTS": "JON ASLESEN, CHANDLER LADNER", "TYPE OF LICENSE": "MANNED" }, "geometry": { "type": "Point", "coordinates": [ -92.301207838636444, 34.789131093518861 ] } },
{ "type": "Feature", "properties": { "BUSINESS NAME": "WALHALLA AG SERVICE LLC", "OWNER/OPERATOR": "DAVID CARIGNAN", "EMAIL": "walhallaagservice@utma.com", "PHONE": "701-549-3500", "CITY": "WALHALLA", "STATE": "ND", "CHIEF PILOT (RESPONSIBLE FOR ALL PILOTS)": "DAVID CARIGNAN", "ADDL PILOTS": "NONE LISTED", "TYPE OF LICENSE": "MANNED" }, "geometry": { "type": "Point", "coordinates": [ -97.934658866314948, 48.877177562486452 ] } },
{ "type": "Feature", "properties": { "BUSINESS NAME": "WALKERS LAWNCARE LLC", "OWNER/OPERATOR": "RYAN WALKER", "EMAIL": "walkerslawncare@hotmail.com", "PHONE": "218-779-2744", "CITY": "HILLSBORO", "STATE": "ND", "CHIEF PILOT (RESPONSIBLE FOR ALL PILOTS)": "RYAN WALKER", "ADDL PILOTS": "JORDAN AVISO, ELI KUEBER", "TYPE OF LICENSE": "UNMANNED" }, "geometry": { "type": "Point", "coordinates": [ -97.024568418666618, 47.441359266329258 ] } },
{ "type": "Feature", "properties": { "BUSINESS NAME": "WILD AIR SERVICE LLC", "OWNER/OPERATOR": "ISAAC WILDE", "EMAIL": "wildeairservice@gmail.com", "PHONE": "605-860-8692", "CITY": "VOLGA", "STATE": "SD", "CHIEF PILOT (RESPONSIBLE FOR ALL PILOTS)": "JORDAN WILLIAMS", "ADDL PILOTS": "NONE LISTED", "TYPE OF LICENSE": "MANNED" }, "geometry": { "type": "Point", "coordinates": [ -96.90001161886687, 44.321252185372025 ] } },
{ "type": "Feature", "properties": { "BUSINESS NAME": "WILD RICE AIR AG INC", "OWNER/OPERATOR": "RODNEY ERICKSON", "EMAIL": "r2inc@hotmail.com", "PHONE": "701-367-5243", "CITY": "RUTLAND", "STATE": "ND", "CHIEF PILOT (RESPONSIBLE FOR ALL PILOTS)": "RODNEY ERICKSON", "ADDL PILOTS": "NONE LISTED", "TYPE OF LICENSE": "MANNED" }, "geometry": { "type": "Point", "coordinates": [ -97.472446073798068, 46.118609032065486 ] } },
{ "type": "Feature", "properties": { "BUSINESS NAME": "WINFIELD UNITED", "OWNER/OPERATOR": "MATTHEW MITTAG", "EMAIL": "mmittag@landolakes.com", "PHONE": "701-970-9677", "CITY": "FARGO", "STATE": "ND", "CHIEF PILOT (RESPONSIBLE FOR ALL PILOTS)": "ALEXANDER CURLEE", "ADDL PILOTS": "DAKOTA WOLFE", "TYPE OF LICENSE": "UNMANNED" }, "geometry": { "type": "Point", "coordinates": [ -96.799053557138507, 46.869696327566736 ] } },
{ "type": "Feature", "properties": { "BUSINESS NAME": "WINFIELD UNITED", "OWNER/OPERATOR": "ALEXIS DICKSON", "EMAIL": "adickson@landolakes.com", "PHONE": "701-371-3684", "CITY": "GALESBURG", "STATE": "ND", "CHIEF PILOT (RESPONSIBLE FOR ALL PILOTS)": "ALEXIS DICKSON", "ADDL PILOTS": "TROY GULLEKSON", "TYPE OF LICENSE": "UNMANNED" }, "geometry": { "type": "Point", "coordinates": [ -97.376650078818315, 47.293156395488829 ] } }
]
}
